SaleID,OrderID,OrderDate,CustomerName,CustomerEmail,ProductID,ProductName,ProductCategory,UnitsSold,UnitPrice,TotalPrice,Revenue,Region,Discount,CustomerID,PaymentMethod,PaymentStatus,OrderStatus,ShippingCost,Carrier,TrackingNumber,CouponCode,CouponDiscount,City,Country,Latitude,Longitude,ShippingAddress,BillingAddress
d0c2100e-e2ca-4112-b420-2718c9f6d0d5,95981d9b-6f75-4647-8d80-67affb9c3add,2024-05-01 13:55:56,Jeffrey Perry,frederickjulia@example.com,72,support,tree,9,98.83,884.59,884.59,East,4.88,340,Credit Card,Unpaid,Shipped,10.8,UPS,bd88d10e-8917-4702-b430-f4323928fd99,indeed,4.88,Bridgeport,US,41.16704,-73.20483,"575 Spencer Field Suite 332, Heatherton, AS 30371","942 Paul Roads Suite 350, North Beckyshire, CT 95562"
097ea928-a12a-434c-a380-cbd47cfffad2,c3b8549f-ba1b-4da8-85dd-15e3145f5d00,2024-03-12 12:33:38,Anthony Haas,jenniferking@example.com,85,main,which,9,25.17,222.07,222.07,North,4.46,268,Debit Card,Unpaid,Shipped,19.1,UPS,280fc228-90f6-479a-b5b5-c08a8008631e,between,4.46,Waverly,US,42.7392,-84.62081,"528 James Wall, West James, KS 30202","1899 Edward Ford Suite 267, Sarahborough, WV 80254"
8c6e7674-2994-4d70-8ce6-8cba9484fa10,1da91f35-23dc-4bff-97ba-61eb6a08e954,2024-07-11 00:34:08,Bryan Mcconnell,lcrawford@example.net,28,manage,mention,4,33.37,124.68,124.68,East,8.8,359,Credit Card,Paid,Pending,5.45,USPS,be35f819-f1e9-4fe8-85d4-f45d8142acb9,realize,8.8,Middle River,US,39.33427,-76.43941,"8626 Suzanne Lake, Michelleside, WA 75401","3173 Brooke Trail Apt. 228, Port Krystal, VT 05722"
3fc405ab-4a4f-42ba-acc5-77fdb88763f0,8ad27e6c-a89f-4d72-95a6-76a408661588,2024-01-08 21:57:03,Sarah Smith,darrenmartinez@example.net,3,hold,sell,3,90.98,266.33,266.33,East,6.61,481,PayPal,Unpaid,Shipped,8.56,USPS,495bce5c-1347-4154-83b2-ec605b169299,particularly,6.61,Camarillo,US,34.21639,-119.0376,"407 Fritz Pass Suite 542, Jimenezfurt, PA 14615","81859 Crystal Tunnel, North Lynn, MH 93300"
70b9b694-8752-4936-927b-d78e6c10097f,fb844fb0-219a-4556-827e-e1f89f053f68,2024-04-01 22:55:42,Kimberly Dominguez,smithrachel@example.net,63,sit,store,9,36.03,323.77,323.77,East,0.5,289,PayPal,Unpaid,Pending,16.79,DHL,4eaf2122-ce8d-4e42-8daa-0d66396c27fb,spring,0.5,Jersey City,US,40.72816,-74.07764,"624 Conner Ways Suite 024, Jasonland, MP 71360","05102 Thomas Junction, Port Rachel, OH 29917"
dca4216f-b3ff-442b-bcee-b6bc5c6cce00,7ca5d38d-5877-49ca-8902-7d93abd121f5,2024-05-16 14:21:21,Joshua Smith,luisdavis@example.org,55,young,against,3,84.26,248.15,248.15,East,4.63,295,Credit Card,Paid,Shipped,18.86,UPS,95ea4589-02e0-4b80-8072-4001b160f1a7,could,4.63,Dumont,US,40.94065,-73.99681,"8297 Juarez Wall Apt. 140, Jefferyberg, NH 98410","50891 Stacy Road, Danielleberg, OH 33182"
73038859-edc7-4aba-a05d-71df0e0125b2,d050d7b3-21a6-4581-9fef-2057015aaf80,2024-04-28 19:58:34,Michelle Hill,hannah67@example.org,70,again,thought,9,68.7,610.2,610.2,East,8.1,199,Cash,Unpaid,Shipped,9.81,UPS,2543f0af-5403-4849-b37b-cb72d1d78767,soldier,8.1,Port Richmond,US,40.63316,-74.13653,"600 Alice Rapid Apt. 383, Port Andrewville, AL 21806","51933 Gallegos Point Apt. 257, Virginiafurt, AS 55371"
27be6b30-8b6e-460f-9bc5-88fef374b053,df31d112-4ff2-46d9-970b-a8866cf439ac,2024-07-12 13:47:04,Savannah Rose,kmaynard@example.com,39,ago,great,5,43.53,213.58,213.58,East,4.07,493,PayPal,Refunded,Delivered,12.58,FedEx,75bcca59-8075-4d04-b4e0-0087683036a1,game,4.07,San Gabriel,US,34.09611,-118.10583,"690 Strickland Spurs, New Jamesfurt, UT 74985","PSC 0543, Box 4443, APO AE 75110"
5384b5b4-63c4-47f5-83df-4f7c6a949b25,771aa008-d12a-493d-8350-107ccbbbd26e,2024-01-11 14:19:14,Julie Wise,qwolf@example.com,93,discuss,soon,6,40.98,242.85,242.85,North,3.03,5,Credit Card,Paid,Delivered,7.9,USPS,07be5a84-47c0-454c-96dd-3441f4ee2069,several,3.03,Lompoc,US,34.63915,-120.45794,"7801 Joshua Well, Jacobmouth, NE 20799","22431 Summer Common, East Cassandra, NY 19349"
43dbf747-f48f-40fb-85da-2fb7ba0edb70,d0b85598-9605-42dc-904d-555251b138e3,2024-08-04 08:38:58,James Moore,rebeccabryant@example.com,62,receive,movie,3,88.91,259.51,259.51,East,7.22,472,Debit Card,Unpaid,Shipped,8.09,UPS,3fc27318-99f3-476a-906c-0a2bc9ebe709,north,7.22,Ada,US,34.77453,-96.67834,"1003 Deleon Underpass, East Amberville, AS 95752","041 Jones Turnpike Apt. 982, North Jasmine, DC 51075"
d2040f75-fb9e-43d9-a0ce-2706accadcdb,7f858821-418e-4067-94ce-04c3a7492f09,2024-05-29 05:56:47,Jennifer Robles,gibsonedward@example.com,89,just,safe,6,52.12,310.93,310.93,North,1.79,334,PayPal,Refunded,Pending,15.06,FedEx,ea63b333-4c4e-46e3-b2ed-88eef0471db4,several,1.79,Greenville,US,33.41012,-91.06177,"1860 Simpson Village, Port Eric, WI 03925","83682 Gordon Landing Suite 875, Williamsshire, CO 64318"
ced7285b-343a-4e82-a9b9-ea1eb4af59a1,8a6adfa3-0bd7-404c-af7d-3fc060c90583,2024-06-20 21:54:18,Patricia Garcia,tylermcguire@example.org,57,sing,surface,9,36.88,323.18,323.18,South,8.74,112,PayPal,Refunded,Cancelled,12.9,USPS,f9eeef3c-034e-4d14-ac61-a3c1de2b9ac8,role,8.74,Sun City Center,US,27.71809,-82.35176,"506 Jason Lake Apt. 010, Port Douglasville, WY 85677","541 Dalton Island Suite 881, New Mary, NJ 23330"
9b53f2c7-1acc-4865-bf35-d2b01e1117b2,5c11d795-2d5f-46e7-a626-741c14a6dd85,2024-02-21 20:31:16,Jason Garrett,rmatthews@example.org,83,over,through,6,20.18,113.22,113.22,South,7.86,289,Debit Card,Paid,Shipped,11.79,UPS,261b40cb-7b9c-4f03-ae9b-aa5d3293ef99,leader,7.86,New City,US,41.80753,-87.65644,"7074 Elijah Tunnel Suite 347, Lake Monica, FM 68535","466 Knight Springs Apt. 995, Janetbury, WI 26904"
54ed1ec9-b0ee-48e8-b035-dee3b094947c,16c038b5-e6a5-4eac-8efd-5a06126ff95e,2024-07-06 22:41:04,Michael Snyder,ballardheather@example.com,62,dog,others,10,92.9,927.53,927.53,South,1.47,371,PayPal,Unpaid,Delivered,18.81,UPS,6f570add-e35e-4a7f-859b-666acd411804,develop,1.47,Yonkers,US,40.93121,-73.89875,"4192 Evans Trafficway Suite 454, Robertchester, PW 52392","315 William Squares, Cummingsbury, FM 63130"
311d5469-49a9-456f-be25-4efb72570c61,8a041dfb-e5c4-4fa3-9c97-35533b714980,2024-03-09 02:35:21,Shannon Brown,barbara94@example.com,72,enjoy,attorney,1,52.14,46.59,46.59,North,5.55,432,Credit Card,Paid,Pending,12.65,UPS,3b0c3e4a-587a-4212-a62d-3e076cf7ac06,key,5.55,Lower West Side,US,41.8542,-87.66561,"5178 Renee Track, Frankchester, ND 48453","509 Brian Vista Suite 488, West Susan, DE 86539"
860413c5-f5aa-4864-bc32-31ae5e7b7f61,b185ec9a-5a45-4d5e-ae34-27e3c885f126,2024-05-25 19:02:06,Scott Harrington,angelicapace@example.org,30,important,campaign,7,41.08,281.89,281.89,South,5.67,52,Credit Card,Refunded,Shipped,14.06,DHL,30983933-0af4-433a-9433-3f9c8fc6a546,executive,5.67,West Chester,US,39.96097,-75.60804,"724 Jacob Path Apt. 076, East Sean, TN 08083","0912 Jennifer Mission Suite 747, East Shannonport, GU 24825"
fe9cb88d-955c-471c-b2be-c0f7b102738b,6c1ff524-ec1e-495a-bcbb-8e9afefdd6c8,2024-05-01 18:46:10,Jacob Pineda,michellehawkins@example.com,4,charge,common,1,38.71,30.8,30.8,East,7.91,56,Cash,Refunded,Delivered,12.27,UPS,a76de49e-aa4a-4717-a6ec-7ef506589d68,more,7.91,Odessa,US,31.84568,-102.36764,"480 Obrien Fork Apt. 268, North Bonnieberg, KY 21957","82192 Jason Plains Apt. 347, Coryton, NE 94174"
6f06f6d3-1026-4444-a971-0cd69ee5ee49,8083d4f3-ce95-4e99-9c0a-d7fd64dcc398,2024-06-06 15:33:37,Sarah Sexton,johnsonsarah@example.org,13,blue,instead,7,22.64,151.16,151.16,North,7.32,84,Credit Card,Unpaid,Shipped,12.13,USPS,2aac73da-8796-49bc-8400-805f9c27a7d5,wall,7.32,Riverbank,US,37.73604,-120.93549,"3048 Ashley Walk, Matthewview, NH 63811","67108 Kimberly Roads, Brooksview, VT 43146"
a8263387-2daf-4ecf-96f4-4ef8a3b2ede5,20884234-07e7-4dec-a00b-8810031e7413,2024-06-14 07:27:55,Timothy Butler,mvasquez@example.org,99,similar,morning,8,94.75,756.83,756.83,North,1.17,9,Debit Card,Paid,Delivered,17.27,FedEx,28b45481-c9bf-431a-85ff-064c33812244,win,1.17,Hutchinson,US,38.06084,-97.92977,"774 Roger Squares, West Jonathanside, WV 65575","93018 Jesus Ford, New Patricia, AR 32268"
865f0a1e-4222-4240-9c88-f301dc8e0e5a,ef37fda6-c673-475f-9a28-8de7316b13f0,2024-01-22 06:12:42,Emily Black,catherine35@example.org,33,natural,exactly,10,77.64,772.2,772.2,South,4.2,287,Cash,Unpaid,Cancelled,17.31,UPS,765456dc-bd53-4cbd-a231-b45f9f64d1bb,against,4.2,Scotch Plains,US,40.65538,-74.38987,"529 Sarah Island, East Amandaland, MD 93713","PSC 4954, Box 8517, APO AP 95237"
69b266f2-7f31-467d-a1f8-5a0b5d8007c2,1a92adbd-fed3-4bc8-a243-7235fa46fa7c,2024-02-18 22:21:36,Melanie Mejia,meyersjackson@example.net,29,purpose,respond,10,28.33,283.29,283.29,East,0.01,304,Credit Card,Unpaid,Cancelled,10.1,FedEx,ed6e18c5-f5d0-4df5-aa65-f6fa802c43d7,forward,0.01,Iron River,US,46.09273,-88.64235,"374 Hunt Forges, West Karenport, AZ 78598","Unit 6783 Box 4905, DPO AE 55267"
9a82b372-a535-4908-9215-99104be3609e,4fb4877c-fc82-47f0-9094-8b75dadf8ad5,2024-05-23 05:23:32,Robin Jordan,terri15@example.org,92,heart,put,3,41.16,114.33,114.33,South,9.15,12,Debit Card,Paid,Pending,18.91,FedEx,20728dea-ed4d-4a84-84fb-2c126c8c0a46,firm,9.15,Martinsburg,US,39.45621,-77.96389,"735 Zuniga Forks, Victoriafurt, CT 07932","9850 Walker Valley Suite 189, East Johnfurt, IA 69870"
f3e63cdf-6919-45d8-a2e8-1cea2569c6fc,4253f39b-afaa-40bb-abf4-0432abd09d84,2024-01-05 18:23:35,Nathaniel Kaufman,smithseth@example.com,6,their,gas,3,58.57,167.07,167.07,North,8.64,166,Debit Card,Refunded,Pending,12.61,UPS,e06da8e7-02f1-4d76-9b5d-d0e9cb0687e3,box,8.64,Glendale,US,34.14251,-118.25508,"0863 Lauren Landing, Lake Kimberly, ME 44406","0178 Steven Spur, North Brooke, ME 95203"
dd2b7521-3b51-4884-a251-768d3dd1592c,0c17bf63-fc1c-48bf-a0de-b2b0635ca1d5,2024-03-13 07:15:00,Kayla Lynch,morganjoshua@example.net,12,item,civil,3,90.48,268.77,268.77,North,2.67,178,Debit Card,Refunded,Cancelled,10.88,UPS,baabe16e-31ba-4154-8f41-7d6ae6c7a510,indicate,2.67,Collinwood,US,41.55838,-81.56929,"155 Garcia Spring Apt. 961, Edwardburgh, ME 93489","702 Williams Squares Suite 291, New Davidport, CA 75579"
68c3da9c-1874-475c-8a2a-2af288b5df41,856ad70b-856e-490a-8cee-14bbc7614f60,2024-01-05 08:06:13,Elizabeth Garcia,grantcurtis@example.net,40,by,line,6,70.75,422.44,422.44,North,2.06,353,Credit Card,Unpaid,Pending,7.07,DHL,4f42e06f-3548-4042-adde-194ca5827da0,security,2.06,Hutto,US,30.5427,-97.54667,"4826 Nicholas Springs, Amyhaven, FL 68660","09117 Wyatt Haven Apt. 276, Patriciaborough, CO 06719"
7f95a177-9861-45b0-8ec0-c3c2e89c086f,ec57a750-7974-494d-98b8-c2f747d7bfb6,2024-07-23 15:19:22,Nicole Washington,mcclainchristine@example.com,2,leg,natural,6,19.13,108.57,108.57,East,6.21,242,Credit Card,Paid,Delivered,8.66,UPS,d987566a-5978-4585-b6a4-16612743bd1f,begin,6.21,West Chester,US,39.96097,-75.60804,"370 Berg Freeway Apt. 858, West Deborahtown, ID 13232","240 Richardson Parkways, Codyport, KS 31461"
aecb03a8-68cb-41c0-b11a-4eb91c7eaa3f,d845bcbe-f894-4012-8930-bf7d252c515c,2024-04-03 23:01:37,John Turner,charles36@example.com,20,senior,discussion,3,36.52,101.29,101.29,South,8.27,258,PayPal,Paid,Shipped,18.12,DHL,650543c1-76ed-49ac-bce5-d8f929c6ff6f,gun,8.27,Fayetteville,US,35.05266,-78.87836,"274 Tran Ferry Apt. 780, Moralesstad, AZ 56684","0958 Houston Fords, Larafurt, VT 66754"
32687063-4726-472a-aac3-923989b50ccc,68e6cc80-2dde-4882-92aa-7e362cadd841,2024-03-01 17:26:47,Amanda Weber,nancy52@example.org,96,glass,candidate,2,98.71,195.9,195.9,North,1.52,349,Credit Card,Paid,Pending,19.54,DHL,46ec9765-34aa-4bdf-b04c-c0e780e4be3b,girl,1.52,Huntley,US,42.16808,-88.42814,"8485 Michelle Coves, Lake Joshua, CO 70279","5203 Lynch Mills, Franklinton, VI 33865"
3e26961b-0728-4fe1-a53f-8b544936e4df,1e3b3e4a-a64a-4843-9802-ac87da7da8b3,2024-01-18 22:49:33,Tamara Branch,jamesgomez@example.com,47,lawyer,democratic,9,63.88,569.16,569.16,East,5.76,259,Debit Card,Paid,Delivered,5.64,USPS,70941cf0-5d77-4659-8845-9a8dc5187b7a,could,5.76,Bridgeport,US,41.16704,-73.20483,"49059 Young Drive, Lake Catherinetown, NV 63949","957 Obrien Stravenue, West Tannerfurt, WA 03005"
1aa95382-109f-4671-8226-fca021e389fe,a83c9f89-7d12-4887-a9bb-51353829d3c4,2024-06-02 10:50:17,Andrew Werner,jennifer20@example.net,81,produce,single,1,93.12,91.56,91.56,South,1.56,433,PayPal,Refunded,Cancelled,17.15,UPS,5ecbc9a6-a1b8-4b14-9770-07f7dc04c65d,yes,1.56,Pottstown,US,40.24537,-75.64963,"930 Marcus Divide, New Robert, MN 40233","873 Johnson Mission Apt. 381, East Colehaven, KY 55497"
7bfed392-42aa-4c51-b933-e57ebaa180be,1103825f-2625-455a-b1fc-f80330b9abe9,2024-03-16 07:02:44,Eric Cooley,htaylor@example.net,19,poor,enter,5,13.1,55.93,55.93,North,9.57,62,Debit Card,Paid,Shipped,18.4,FedEx,f7f1ef14-a4d7-458f-9941-b737770de6a3,table,9.57,Crystal Lake,US,42.24113,-88.3162,"416 Smith Ranch, Arnoldfort, CO 18893","3595 Derek Glen Apt. 151, Bryantport, MH 75744"
c2e5b121-ac91-4994-abbd-a8b0037ffd32,12a33d5e-6374-41c9-a70f-1fa6dcde3bd1,2024-07-09 10:21:33,Gregory Summers,amyharrison@example.org,11,city,I,9,42.68,382.97,382.97,East,1.15,98,PayPal,Paid,Shipped,14.87,FedEx,28d95fff-268b-4887-9912-db2763fb4eb0,top,1.15,Independence,US,39.09112,-94.41551,"4504 Reed Stravenue Suite 099, Lake Angela, OK 54353","435 Kathy Plaza Apt. 608, North Jeremystad, NE 63635"
dd4cb940-5db7-415b-89a8-3e61ac8e74ca,fed55abb-f689-4f65-84f1-f05f18308dd0,2024-06-18 00:48:58,April Burns DVM,russell37@example.com,43,mean,individual,2,56.78,106.69,106.69,South,6.87,133,Cash,Refunded,Cancelled,14.46,DHL,35f5b389-3e12-4094-850f-77a40f3aee85,data,6.87,Front Royal,US,38.91817,-78.19444,"336 Kenneth Greens Apt. 590, South Mark, IN 66054","95868 Waters Center, Lake Lisatown, AL 55887"
a7552e6e-4e05-4886-98f4-cb98652e0fdc,5f53b9df-f21b-48f3-a625-86531aeb8124,2024-05-30 04:45:41,Kelsey Singh,simonnicole@example.com,62,require,hard,10,54.94,540.29,540.29,South,9.11,295,Cash,Paid,Cancelled,5.47,FedEx,49920b96-f323-4989-95fd-69e629296253,decade,9.11,Clermont,US,28.54944,-81.77285,"906 Guzman Pines, Rossshire, IN 50938","44331 Shannon Turnpike Suite 148, Wheelerton, GU 28184"
8876249d-63d2-4d5f-b05e-7d158b6c1e19,c341ba56-444a-4969-b46f-03a8cfab32b5,2024-02-10 15:47:26,David Garcia,alyssajackson@example.org,77,central,appear,7,38.29,264.24,264.24,North,3.79,198,Credit Card,Unpaid,Cancelled,18.02,UPS,875b0610-5100-4d17-bbed-7228bd4c9f1d,require,3.79,Lino Lakes,US,45.16024,-93.08883,"44940 Norma Passage, New Sarahshire, MS 31646","PSC 6447, Box 9094, APO AE 81709"
0c74e111-40fc-426b-9cab-a84147f81f43,a68d32c2-4643-479b-b82c-3c4d295bb160,2024-02-02 01:13:22,Angela Carroll,tanderson@example.com,37,federal,morning,1,87.6,82.3,82.3,West,5.3,67,Debit Card,Refunded,Pending,18.47,DHL,7c345451-465b-4a9b-9e02-c1b736391412,month,5.3,Woodlawn,US,39.32288,-76.72803,"2547 Patricia Inlet Apt. 348, Port Reneeshire, CO 90855","5081 Cooper Knoll Apt. 281, New Caseyfort, MI 29772"
1fc41de3-0a06-4c37-b884-3c92d17115c6,09fee33f-5588-4938-a89c-db76f99e9467,2024-03-17 03:54:12,April West,curtismarquez@example.net,30,get,page,8,89.55,710.35,710.35,South,6.05,220,Cash,Refunded,Cancelled,17.57,USPS,0c23f794-b72c-4c38-b4cc-bc1028b370e2,sound,6.05,Clermont,US,28.54944,-81.77285,"462 Gordon Valleys, Nicolebury, TN 45860","35304 Trevino Trail, West Jessica, AZ 76105"
b225a4cd-71ef-4ffe-b4cb-ce74e58ee894,ffd376b1-3f3c-465b-9fc3-df934b0eb951,2024-01-16 01:10:12,Amy Boyd,dgilbert@example.net,98,keep,cultural,1,17.68,13.48,13.48,West,4.2,75,Cash,Unpaid,Cancelled,7.78,FedEx,52e2a07d-8fb0-428e-8bcc-37271315f71c,blue,4.2,Sterling,US,39.00622,-77.4286,"USNS Castillo, FPO AE 57806","3298 Peter Extension, North Teresa, MP 50739"
3322808f-cea2-41ca-a88d-41406d02d74e,93fb5fc4-1cbf-46c8-a317-a9734c8109c3,2024-02-20 13:17:58,Destiny Guerrero,dillonkathryn@example.com,20,attention,civil,1,29.25,28.81,28.81,North,0.44,107,PayPal,Refunded,Pending,18.21,DHL,180ef11d-b9e7-4235-9cdf-cc845d04cf0e,sound,0.44,Sun City Center,US,27.71809,-82.35176,"10301 Rachel Crest Suite 187, South Rachelton, OH 99169","PSC 4953, Box 1509, APO AE 31474"
eaff0e21-3e94-4453-bd4c-4156efb18955,24889d21-e069-48a5-bff8-ce94e21087ef,2024-04-09 20:41:53,Michael Rodriguez,jessicachavez@example.org,58,common,too,3,55.1,161.66,161.66,West,3.64,341,Debit Card,Paid,Pending,7.72,USPS,81237ba9-5631-48db-bd3a-9b69202bac60,energy,3.64,Tupelo,US,34.25807,-88.70464,"PSC 2742, Box 6083, APO AE 65335","9844 Benjamin Crescent Apt. 002, North Kevin, DC 81859"
cdef53a1-a3bb-4a69-97f1-85af5ae1519d,f6fa441d-cee8-491b-a424-d7985f742cf6,2024-06-26 23:23:48,Michelle Jones,samantha28@example.org,87,deal,way,3,94.76,277.26,277.26,North,7.02,31,Debit Card,Unpaid,Pending,10.26,USPS,e07fe0f9-1996-4197-8a41-7439231eb96c,theory,7.02,Odessa,US,31.84568,-102.36764,"574 Lisa Isle, Port John, VT 88231","540 Ward Groves, Brianberg, TX 22046"
3629519a-4821-4aa5-9d85-780cc0a83ae7,75552bce-3233-4880-92dd-58de9dd4953d,2024-01-20 17:46:14,David Daniels DDS,jruiz@example.com,87,expect,we,9,16.6,145.6,145.6,East,3.8,65,PayPal,Paid,Shipped,16.53,UPS,be743b9f-3c61-43c9-bd13-dddca01e6472,must,3.8,Lakewood,US,41.48199,-81.79819,"833 Mccann Trail, South Elizabethhaven, SD 32974","9310 Miller Burgs, South Justinside, NV 66718"
3ce31697-5961-4370-bd8a-d641c040ff76,9e3705de-49a6-4536-ad8a-bdc963360cd9,2024-03-30 04:44:38,Jason Clark,gpatel@example.org,29,will,American,9,27.26,243.3,243.3,North,2.04,445,PayPal,Paid,Shipped,8.42,USPS,4b1fc7bc-c393-42f2-b808-bbc666cb83e5,create,2.04,Palestine,US,31.76212,-95.63079,"317 Elizabeth Grove Apt. 678, Dennisport, MP 08077","12208 Burch Crescent, New Michelleview, DC 72025"
233f0359-4cd7-4068-a16a-a333aaf4c59f,c9f4339b-879f-4339-95d7-e87daa079cfb,2024-07-15 05:32:30,Felicia Rodriguez,rdavis@example.org,36,prove,as,1,75.85,70.11,70.11,East,5.74,442,Cash,Refunded,Cancelled,12.46,DHL,2dbbec54-3cd9-4577-89c5-1dfdc5a8e4cb,character,5.74,Bon Air,US,37.52487,-77.55777,"2247 Anderson Neck, Patrickchester, FM 61879","19158 Denise Skyway Apt. 964, North Michelle, KY 52105"
9d881778-15f3-472b-8c9e-1335ad7ca988,efdee939-84c6-43b7-8d2f-4cf3346dfc0b,2024-01-09 05:00:48,Kimberly Williams,wilsonanthony@example.com,72,material,year,6,76.95,458.67,458.67,North,3.03,220,Debit Card,Paid,Delivered,7.91,USPS,e2b6bd9e-8b6d-43a6-bc67-d15df025c0d7,scene,3.03,West Chester,US,39.96097,-75.60804,"7401 Colleen Glens, Fullerstad, DE 59574","225 Thomas Mountain, South Cheryl, GA 37065"
d53ecb30-9ab4-4704-ab17-e4ac75eed5b4,465d27e3-b4ca-4750-8a9a-eb883696ab71,2024-03-23 11:59:59,Danielle Briggs,oscar28@example.org,26,work,anything,6,11.03,60.61,60.61,South,5.57,226,PayPal,Unpaid,Delivered,14.18,DHL,dd53dcc0-f0f2-44bb-8aca-6aa0ef6e223a,herself,5.57,Riverbank,US,37.73604,-120.93549,"62658 Thompson Prairie Suite 142, Elizabethchester, AZ 46189","74554 Joshua Valley, West Joseborough, VI 47390"
8ccb6c48-cdcf-4aca-baf1-8f672469d115,6e751274-e429-4873-a53a-c6b445e94394,2024-04-30 22:28:10,Diana Wright,kennethdavis@example.com,2,writer,task,5,39.37,189.63,189.63,North,7.22,442,Cash,Unpaid,Delivered,9.59,UPS,36133bd1-2f32-4ecd-aab0-2b63009c8361,rule,7.22,Morningside Heights,US,40.81,-73.9625,"70422 Wright Walk, Jenningsside, MP 78439","2714 Lynch Landing, South Brittany, CO 52879"
f090e93b-f071-4586-8334-1e6c5d399822,cfe6e6f8-8c49-4c72-b47b-c06c44f4ddb0,2024-04-18 23:15:29,Paula Perez,debra95@example.com,62,follow,true,1,68.08,66.64,66.64,West,1.44,480,Cash,Paid,Cancelled,13.76,UPS,96ab1ff9-92f2-49c0-a6b3-eb4e557fef88,executive,1.44,Bon Air,US,37.52487,-77.55777,"87498 Mclaughlin Fields, West Stevenstad, IL 75907","76502 Micheal Fork Suite 000, Walltown, VT 15475"
a984eee5-d11d-4049-a23a-7f7aadef4c15,6ef68ba4-0834-4b4e-a8e6-cfab7a7a2098,2024-04-01 21:34:26,Shawn Smith,ohunter@example.org,63,feel,her,2,91.8,173.68,173.68,West,9.92,205,PayPal,Refunded,Shipped,6.36,UPS,c966cc19-796e-49ca-94b2-55d7c6d3d7b5,short,9.92,Fairview Heights,US,38.58894,-89.99038,"775 Riggs Knolls, East Trevortown, MA 25438","41688 Johnston Fort, North Linda, MD 41551"
32c162e0-f3f8-4422-a888-c33f5cc685c3,e6af7afa-4ba2-4263-ab26-0d72de0fd87a,2024-07-05 20:11:17,Brian Duarte,joneserin@example.org,37,be,understand,2,16.22,32.24,32.24,South,0.2,368,Credit Card,Unpaid,Cancelled,12.03,FedEx,60230fea-79bf-443f-a5d3-9c90966bfa96,other,0.2,Malden,US,42.4251,-71.06616,"Unit 0937 Box 7721, DPO AP 51643","0066 Ortiz Manors Apt. 324, New Brian, NE 32632"
ea892d67-4c54-47b2-9d60-35bb2e886271,15899671-756a-4add-8987-9d69de746009,2024-05-01 13:50:14,Nicole Preston,tylerpayne@example.net,26,seat,receive,10,91.53,905.96,905.96,West,9.34,16,Credit Card,Unpaid,Delivered,18.31,UPS,0bb31cc9-de87-43e5-9242-1b7653b60189,interesting,9.34,Greenville,US,33.41012,-91.06177,"87945 Alexis Brook, Cynthiamouth, NY 12412","399 Heather Port Apt. 789, Burnettberg, KS 38376"
379d3d04-e021-4470-95e6-87c6801a59ac,76ebb725-f6b5-49c0-98b6-35f132a062c3,2024-01-08 23:51:57,Kaitlin Valdez,qallen@example.org,90,bed,it,2,36.77,69.48,69.48,North,4.06,18,PayPal,Unpaid,Shipped,12.63,FedEx,87356436-2d46-44ba-a7bb-11eee18996b5,will,4.06,Camarillo,US,34.21639,-119.0376,"832 Briana Expressway, North Joshuaville, AS 24140","325 Brenda Gateway, Morristown, AK 74435"
cea36a31-0ec1-45ff-bdb4-728670506fb0,7ea01a99-abf9-4a59-a402-3984ba00345b,2024-02-08 03:17:02,Diana Cox,ypacheco@example.org,60,week,laugh,1,29.08,21.28,21.28,East,7.8,188,Cash,Refunded,Delivered,12.43,UPS,fcb462c3-67d7-4c14-9085-e2bc76d0f2d7,network,7.8,Abilene,US,32.44874,-99.73314,"484 Ballard Fields Apt. 614, New Stephanieside, TX 47582","4579 Corey Cliffs, New Kirkfort, CT 48118"
bc8b4e53-edb5-4ab7-83fa-68ae21a60312,646121da-368e-4e27-8479-8f2728ffff48,2024-01-11 09:58:56,Randy Collins,bcardenas@example.net,4,project,daughter,1,75.39,68.54,68.54,South,6.85,312,Credit Card,Refunded,Pending,10.4,FedEx,8c9e94fb-d148-4a24-b3ff-0786087feff7,artist,6.85,Gates-North Gates,US,43.16547,-77.70066,"Unit 0938 Box 4262, DPO AA 55984","01086 Amy Ports Suite 298, East Jamesville, OR 28497"
d61574e8-e65a-431a-9c86-4ae84985d1cc,ee3da657-17da-4f76-bd6f-fca29e70cb04,2024-03-26 23:46:02,Melissa Mata,fgordon@example.com,98,candidate,power,5,78.28,388.75,388.75,East,2.65,21,Cash,Paid,Delivered,7.42,UPS,c9175758-644e-468a-8ae8-4594e4e7f2d6,anything,2.65,Leland,US,34.25628,-78.04471,"6350 Sandra Point Suite 944, Port Victoria, WV 76178","30901 Barnett Skyway Suite 464, Port Rebecca, RI 69551"
5c01ef4d-64e1-4670-847f-3fb1f0ffb84c,583fc4b7-8157-488c-8b05-2b7302f1cce9,2024-02-06 08:24:08,Theresa Reed,rlewis@example.com,70,action,per,5,79.31,396.17,396.17,West,0.38,432,Credit Card,Paid,Delivered,18.74,DHL,8f5835af-9740-4c36-9a81-4f86df731867,technology,0.38,Longview,US,32.5007,-94.74049,"160 Thomas Garden, Turnerstad, HI 20660","01815 Sonya Station, Wilsonbury, NH 83812"
57535da5-4caa-4e10-9935-4f0603394cc8,3b58a692-ab70-41af-a4bb-0397da6f7094,2024-07-01 06:38:32,Daniel Lucas,meyersherry@example.com,90,outside,long,8,57.16,450.39,450.39,West,6.89,462,Cash,Paid,Delivered,16.39,DHL,329207d1-28a7-485a-b9d3-8ac95afa275b,building,6.89,Nampa,US,43.54072,-116.56346,"779 Henry Mission, East Gregory, NJ 24429","1041 Cardenas Shore Suite 021, Wayneview, MN 40479"
3f89fc0e-9dd8-479c-ba01-6e2ce66b39eb,d7731876-fa06-48b1-8427-a8de0f552d65,2024-01-07 04:20:10,Emily Woods,christinawhite@example.com,5,relate,national,9,98.18,882.2,882.2,South,1.42,19,Credit Card,Paid,Cancelled,19.31,UPS,c6db5a8e-5d20-47bb-a584-f37efbbffd9c,serious,1.42,Aurora,US,39.72943,-104.83192,"53828 William Port, East Gregorybury, NE 11760","327 Mary Island Apt. 620, East Sarah, ND 07819"
a2eea003-a508-4a45-8fae-f4d341cb55d8,bb780cd1-2e0a-4c00-beb6-a229e16b1912,2024-04-06 07:47:52,Caroline Smith,dprice@example.net,46,worry,respond,6,54.24,323.58,323.58,South,1.86,219,Cash,Paid,Cancelled,8.26,USPS,59562175-4f3e-4cdc-97b2-a958abd3c961,serve,1.86,Encinitas,US,33.03699,-117.29198,"62721 Samuel Plain, Johnsonburgh, KY 79748","9394 Megan Pines Apt. 350, Robertaview, MA 93181"
6631fc62-9aef-4fff-b72b-94f7030165c4,c09adfb6-0b89-4a45-86f7-d1935614f72f,2024-07-23 16:48:02,Timothy Robbins,imendez@example.com,12,leader,perform,4,35.21,136.61,136.61,East,4.23,209,Credit Card,Paid,Pending,5.66,DHL,07d8f166-1185-48de-b111-4aaf2bd930ef,financial,4.23,Huntley,US,42.16808,-88.42814,"2147 Reed Trail Suite 327, West Amy, CA 75424","925 Michael Summit, Port Daniel, MS 67978"
d389d97c-dd72-4914-a7d5-2262514cfb0b,64b35b3a-1a60-431b-a20a-fee724db3159,2024-05-18 19:04:31,Donald Hunt,djenkins@example.org,66,choose,note,3,29.76,79.99,79.99,South,9.29,459,PayPal,Unpaid,Shipped,6.63,USPS,1c97a800-979a-48bc-a0e6-4c72ef13d5ac,beat,9.29,Claremont,US,34.09668,-117.71978,"1706 Brown Center, Danielfurt, CA 43943","5483 Russo Rapid, West Benjamin, NJ 73775"
9601ad9f-47e0-4b66-9dae-06666dbb54ec,410b6c88-0771-4dfa-99de-ec104bf27013,2024-04-14 14:44:11,Elizabeth Campbell,elizabethlewis@example.net,57,to,movement,7,10.75,71.9,71.9,South,3.35,480,Cash,Refunded,Delivered,8.2,USPS,48a65ad5-1db0-4f28-b0f8-1ad9c40a22dd,commercial,3.35,Sunnyside,US,46.32374,-120.00865,"51514 Benjamin Brook Suite 139, Brucemouth, SC 09904","6616 Mills Rest, East Chloe, IA 68007"
bddffc2f-f1bb-44e5-8180-60a18dfcba15,360b971f-47d6-457e-aeb3-65f47d6b44ae,2024-05-18 00:15:33,Martha Pugh,timothysimmons@example.org,66,know,decide,3,62.19,182.95,182.95,East,3.62,469,PayPal,Paid,Delivered,17.88,DHL,1d0e7abc-8409-4ff1-8ecd-f8131f189a64,bar,3.62,South Lawndale,US,41.84364,-87.71255,"766 Hunt Inlet, West Sarahmouth, NV 87309","52571 Nelson Courts Suite 279, Carlsonmouth, FL 38178"
5a727765-7b7c-43f4-8b5f-bd5098ce4f01,4fdc0056-4835-4d3f-a3f8-2918556e3620,2024-04-08 01:27:22,Kimberly Clark,tylerwilson@example.com,100,more,house,10,85.85,855.41,855.41,East,3.09,357,Cash,Refunded,Pending,15.91,UPS,05a2d340-4cfe-45d5-a32b-e4fa57c71447,training,3.09,Leland,US,34.25628,-78.04471,"80195 Heather Lock, East Rebecca, OH 15410","7692 Roth Alley Apt. 284, Lake Leah, NM 87731"
ebf3a97f-2beb-4680-9249-82427bdcd60e,c398249d-fb68-4589-a297-f04ec7ab9f15,2024-07-05 12:23:31,Christopher Jackson,jamesvasquez@example.net,91,represent,single,4,94.02,370.58,370.58,South,5.5,25,Cash,Paid,Shipped,16.74,FedEx,af82a6c0-9849-41ab-bc87-77802915db0e,point,5.5,Sicklerville,US,39.71734,-74.96933,"581 Jeremy Circles, South Lukefurt, VI 79098","48827 Fisher Springs, North Sarah, MN 08123"
09edf789-ab71-45e1-b256-959c24d5b495,1f81ce9b-ec0a-4d78-b1d4-71a953b7fbfb,2024-02-21 16:10:36,James Smith,jacksontaylor@example.net,41,program,current,4,84.44,334.31,334.31,South,3.45,347,Debit Card,Refunded,Pending,8.32,FedEx,354ac081-f19e-41fc-8e0b-dbd3c762e52b,specific,3.45,Lompoc,US,34.63915,-120.45794,"39194 Moreno Manor Apt. 813, Murphyton, MO 15136","7868 Romero Park Apt. 031, West Richard, OK 67344"
ed960605-e34a-46c0-b9ee-1a2d26324ae8,408d94c6-3216-411d-a513-0d7d9b87c057,2024-03-17 00:48:11,Mary Mccarthy,mmorrow@example.org,67,road,also,1,53.94,51.6,51.6,South,2.34,199,PayPal,Unpaid,Pending,14.91,FedEx,c43fbdcb-91ac-4f8f-a64b-66a7f318202a,morning,2.34,Tyler,US,32.35126,-95.30106,"PSC 7121, Box 0853, APO AP 97353","07667 Rocha Plaza Suite 519, Mcintyreview, AR 75508"
a61f3bd9-ac43-48d6-b63d-71e158dfde3b,7d6a371f-d900-4eb9-8b20-48734238d046,2024-07-30 16:56:29,Jennifer Cortez,kristy03@example.net,59,sense,cost,2,66.33,131.46,131.46,South,1.2,352,Cash,Refunded,Shipped,7.33,UPS,a58517b6-3925-4017-90b1-c23240dbf1fc,themselves,1.2,Carlsbad,US,32.42067,-104.22884,"1431 Newman Way Apt. 322, Hillfurt, IN 24287","234 Brown Ports Suite 078, North Caitlinburgh, FM 86578"
fa78c760-8852-42da-a824-a520299c2c70,11f2fd72-4921-491b-91a8-42dd9e210654,2024-05-22 04:25:43,Evan Williams,mary18@example.com,34,organization,speak,6,42.09,242.64,242.64,West,9.9,171,Cash,Paid,Shipped,12.84,FedEx,72468b14-6e7f-4fa0-a882-a25fb550422e,case,9.9,Fort Washington,US,38.70734,-77.02303,"9129 Owens Landing Suite 614, Bairdhaven, VA 15880","USNV Hernandez, FPO AP 68984"
89226d68-eeef-4132-ae30-64e1b54a0a02,06aa6f03-07ec-4e79-81b2-ad3db10ee57d,2024-06-05 07:24:59,Sierra Robinson,clinton68@example.com,97,whose,continue,6,69.98,415.68,415.68,East,4.2,129,Cash,Unpaid,Pending,17.64,UPS,79bd677a-34ab-4682-9771-2e4b9c4e434e,address,4.2,Brunswick,US,43.91452,-69.96533,"19410 Braun Spring, East Stacy, NC 69842","0392 Mackenzie Centers Apt. 856, Frazierchester, NE 53341"
36d15836-4d55-46d9-bb46-bec93bcc7cce,dfbfcd36-51c8-4dab-932f-35c1037fb212,2024-04-04 01:10:28,Rachel Johnson,cmcdaniel@example.net,61,nor,between,3,35.0,97.18,97.18,West,7.82,294,Cash,Refunded,Cancelled,10.34,DHL,38491234-5942-4649-bcde-4f8ecc9afa28,seven,7.82,Saratoga Springs,US,40.34912,-111.90466,"6904 Morgan Crescent Suite 341, East Bryanberg, NV 17293","975 James Knolls Apt. 760, South Christina, MH 49398"
84b87323-4d89-41e8-9520-a1db5b59cf74,4130d643-013d-4281-ada1-b040bb59c679,2024-07-13 16:13:44,Debbie Richards,mberg@example.net,43,nearly,near,7,22.35,154.62,154.62,East,1.83,26,PayPal,Refunded,Pending,9.87,FedEx,834efbf7-3b5d-4c79-8ca8-a379c3891c6a,specific,1.83,Palm Valley,US,30.17746,-81.38758,"2201 Kristine Lakes Suite 341, South Donnaton, WV 76799","427 Alison Road Suite 855, North Molly, PR 73846"
4b76dac8-2476-4753-80fc-6a3bfae46f67,a3d6dd65-ab7a-405a-8aca-aa6a8be1205f,2024-07-06 21:37:40,Melinda Allison,osandoval@example.net,58,special,rich,4,58.45,231.8,231.8,South,2.0,81,PayPal,Unpaid,Shipped,14.82,DHL,aa4ba813-b8cd-4f7b-b856-e54e1b0e240c,anyone,2.0,Far Rockaway,US,40.60538,-73.75513,"9715 Danielle Meadows Apt. 104, New Hayley, WI 95626","PSC 5767, Box 2227, APO AE 74047"
758fcb0b-00da-4546-8785-c1a9dfe7a599,e7063b50-9d50-40ee-a2af-fde33b4f825f,2024-06-28 14:39:54,Angela Allen,loribailey@example.org,42,as,herself,10,89.92,897.5,897.5,North,1.7,326,PayPal,Unpaid,Shipped,14.47,USPS,943db532-fd90-4cd7-80c0-fe1f25505a8c,mean,1.7,Davis,US,38.54491,-121.74052,"Unit 5710 Box 3204, DPO AA 15914","768 Pamela Islands, Meyerview, NE 97711"
1c989ab0-7971-4d41-8649-968d2a084c14,3fb25d71-e34e-44c3-bdfd-90af39da4322,2024-04-09 02:05:10,Jennifer Mccarty,jacksonaaron@example.com,79,example,sing,10,37.4,365.2,365.2,West,8.8,429,PayPal,Paid,Pending,14.55,UPS,82240454-aa9b-487c-a470-8e4954378f04,room,8.8,Kaukauna,US,44.27804,-88.27205,"0310 Ryan Track, Port Stephanieland, CT 30953","635 Melissa Terrace, Pricetown, IN 28318"
9be9b5b0-8a66-408e-bc46-59422cb5c20b,d04201d1-f42c-4b7a-848a-8a3c1e078274,2024-02-14 10:44:18,Kayla Blair,moranjulia@example.com,29,it,hospital,4,42.95,162.01,162.01,West,9.79,486,Cash,Paid,Delivered,13.77,DHL,9ed7d952-e9c0-421a-afa0-849692118444,blue,9.79,Westchester,US,41.85059,-87.882,"419 Roberts Heights Suite 792, Kimberlyshire, NH 87139","971 Brandon Spring Apt. 988, Dennisburgh, NV 10791"
00d4c755-9f49-4388-857f-fd92e923b3ed,45e27f1f-145f-4222-a4c4-da55e53ea0c7,2024-06-02 12:49:30,Lori Cruz,jean35@example.net,45,suddenly,apply,4,20.09,70.48,70.48,West,9.88,118,PayPal,Paid,Delivered,8.06,FedEx,dcfec27a-6c30-4e82-8c5a-b4062ada06d5,far,9.88,Lower West Side,US,41.8542,-87.66561,"369 Smith Field, Petersonhaven, VI 48378","22385 Eric Views Suite 719, East Michaelton, AL 18338"
cb076a3d-700e-4fe3-a603-5e370853beb4,7e8509f4-cbec-4afb-91e6-65c376f15e6a,2024-05-15 00:55:59,Brandon Phelps,jessica85@example.org,90,follow,painting,1,16.82,13.43,13.43,East,3.39,234,PayPal,Paid,Pending,16.57,DHL,ddada8a9-e5d0-4cc4-ba79-2134731af342,fly,3.39,Palm Desert,US,33.72255,-116.37697,"184 King Terrace, New Kristyville, NC 90177","629 Watts View, Jonesport, MI 46584"
59f5bc3a-f6a1-4c70-b8d2-30b438cff673,dc8f7897-d528-4cac-8087-26ea444bbdfd,2024-03-12 01:55:53,Jessica Reyes,ewiggins@example.net,22,economy,degree,9,71.01,636.65,636.65,North,2.44,359,Cash,Paid,Cancelled,5.76,DHL,b3698dab-cce7-4303-abc0-ce270c330e1b,late,2.44,Tupelo,US,34.25807,-88.70464,"0397 Betty Green Suite 385, Carrport, KS 31521","01817 Holly Mission Suite 772, Floreshaven, GU 43752"
03d29fb6-4dc8-4644-bf0e-f249294fb0d6,12db2f5b-3181-4613-8c6f-b42047297a8e,2024-04-28 01:40:59,Danny Eaton,kathy58@example.com,64,easy,let,5,20.93,96.96,96.96,North,7.69,88,PayPal,Refunded,Pending,13.53,UPS,6cac1149-ffe2-4b43-b589-014ae3c52725,power,7.69,Middle River,US,39.33427,-76.43941,"9487 Nicholas Spring Suite 662, Jordanshire, AR 23371","451 Gomez Cape, West Christophershire, DE 68095"
0b36425f-dc4a-4f62-b9a4-0bdfeebbfcd9,03ce8f7e-9ce1-4263-9b47-a96ca972a0f0,2024-01-07 03:18:37,Morgan Weber,dorisprice@example.net,91,piece,expect,5,22.73,110.88,110.88,East,2.77,378,PayPal,Refunded,Pending,10.09,USPS,2f4453bf-4306-44f6-ab24-766fe065000c,college,2.77,Glendale,US,34.14251,-118.25508,"2801 David Spur Suite 408, Estradahaven, NY 15339","687 Taylor Creek Suite 905, Lindachester, PR 35278"
51e4d81a-be04-4b3a-94aa-8bdb9f635e7a,2d1d4222-1432-4076-8047-bd34ebbbe043,2024-05-04 19:04:48,Jacqueline Lopez,scott19@example.com,20,this,professor,2,30.95,57.97,57.97,South,3.93,485,Cash,Paid,Shipped,9.05,UPS,83398c6b-b3f8-4ebc-8f8f-4f0a4d057afc,new,3.93,Palm Valley,US,30.17746,-81.38758,"31049 Melanie Passage Apt. 333, Copelandton, LA 37353","0725 Reese Walks Suite 619, Cynthiaview, WY 86191"
f4fc8621-ef2a-490a-bee1-df83dedbb029,97cb786e-5c92-4d7c-9de9-91f083143246,2024-01-12 05:32:36,Daniel Gonzales,david05@example.org,30,at,tell,4,29.55,109.53,109.53,South,8.67,229,PayPal,Refunded,Shipped,19.26,DHL,d88180d5-d42f-49d0-b9f9-2681c2ae7824,miss,8.67,Saratoga Springs,US,40.34912,-111.90466,"198 Powers Place, Lewisfort, RI 09582","6842 Johnson Fork, Johnhaven, MI 08844"
5206dfa7-9e8a-4d56-9b58-65872aedeb52,d1c2c46f-8713-496c-bc17-58a3ec3c9096,2024-03-04 19:16:17,Jose Smith,andrew69@example.com,71,some,difference,5,28.04,132.97,132.97,South,7.23,128,PayPal,Refunded,Pending,13.26,USPS,e4f1a8b6-57a9-457b-8cce-27a288065424,authority,7.23,Cypress Hills,US,40.67705,-73.89125,"96115 Judith Oval Apt. 820, North Sandra, FM 45147","Unit 7687 Box 9943, DPO AP 37353"
1c67942b-0ba5-4ffa-abd6-00b0735c3ceb,4d11a1a4-a4fb-418f-96a7-6853255646a7,2024-05-17 08:26:38,Anna Johnson,sullivanthomas@example.com,56,trouble,memory,3,34.13,92.9,92.9,South,9.49,4,PayPal,Unpaid,Delivered,6.99,DHL,73504ca2-9715-440d-a673-f82fbd4b10a2,west,9.49,Toledo,US,41.66394,-83.55521,"6417 Brandt Brooks, Lake Jennifer, MO 68743","03739 Garza Summit, East Stephanieville, NC 95535"
2b422b3d-94c4-4f2e-98ab-8097e99fd1e7,821bbcde-b100-4829-ac76-f1c925f25706,2024-04-19 19:45:20,Lindsay Parker,johnsonjoshua@example.com,84,drop,new,2,17.0,28.84,28.84,East,5.16,14,Credit Card,Refunded,Cancelled,11.71,DHL,f74330fc-af1b-4dd1-8f39-4b25f9210b3e,southern,5.16,Yonkers,US,40.93121,-73.89875,"USS Mckinney, FPO AE 12991","1901 Edward Track Suite 508, Westfurt, GU 44772"
844ae6c2-e9da-4316-8e82-17daee8a77b8,d8c16164-21a6-457f-b9df-96280404613a,2024-02-26 12:49:37,Regina Holmes,stephanienguyen@example.org,4,general,drive,10,37.7,371.11,371.11,North,5.89,287,Credit Card,Paid,Shipped,10.71,USPS,22b85e3c-768e-416a-aa79-db049cdf7c18,bar,5.89,Martinsburg,US,39.45621,-77.96389,"251 Amy Way Suite 431, Carriestad, AL 10149","911 Kimberly Parkways, North Rachelland, IL 20820"
2144af69-4670-4eef-8cd9-d52d5865762d,b66e9a40-0d25-4bc3-a99f-654abbbdaac0,2024-04-15 06:57:23,Jessica Riley,dnelson@example.com,55,everybody,operation,7,77.38,540.22,540.22,North,1.44,358,Cash,Paid,Delivered,14.09,USPS,8123db7f-a7e8-43b6-a697-533ac5cdd7c7,may,1.44,Greenpoint,US,40.72371,-73.95097,"USNS Quinn, FPO AA 73676","3903 Allen Dale Apt. 373, East Edwardport, PR 97751"
bfca71f8-9371-4b46-b422-046b1643860c,d34b9ef7-b9a7-49ea-bff7-a59d8eae10ae,2024-07-01 04:18:01,Danielle Bradford,danielorr@example.net,97,form,director,8,57.3,451.67,451.67,South,6.73,113,Credit Card,Paid,Shipped,7.46,UPS,788972fc-ff33-4a13-be49-135ecf7b0dce,line,6.73,Sterling,US,39.00622,-77.4286,"PSC 8487, Box 7689, APO AE 60194","874 Miller Stream, Taylorhaven, MO 21017"
b26146e2-84d9-4701-8774-4e9abf6492a2,6c810c37-2d5b-4fb7-8de4-98ac3dcbc5cf,2024-05-25 09:22:55,Lee Smith,parkerchristopher@example.org,35,learn,send,10,91.66,910.91,910.91,South,5.69,139,PayPal,Paid,Pending,12.47,USPS,bcb4e7ce-aa90-4e1e-a677-3e4f9cd800ff,establish,5.69,Massapequa,US,40.68066,-73.47429,"697 Molly Ramp, Johnsonshire, NJ 93292","28976 Sara Court, New Sarahland, IL 50838"
ab932251-3feb-4a54-a0bb-9ad40d0040fe,b2261cc4-e19f-43ad-95f7-5ecbf6276e5f,2024-07-18 20:16:28,Chelsea Yang,hwhitaker@example.org,71,guy,church,3,63.27,182.33,182.33,East,7.48,107,Cash,Unpaid,Shipped,13.91,USPS,211e4ddb-e974-4ef6-a3a4-f1fe7db895ec,yeah,7.48,Fayetteville,US,35.05266,-78.87836,"1358 Marco Tunnel, Claystad, CO 37018","USNS Fisher, FPO AE 43097"
6b4777c0-ca2f-445b-aecb-fe45dd1175fb,0ebc2aa4-1f1d-4abe-a9db-81995484ddb2,2024-07-24 08:37:55,Jason Peterson,jodi25@example.net,34,think,increase,10,12.02,114.4,114.4,South,5.8,367,PayPal,Refunded,Delivered,11.51,USPS,b0611ba5-caa5-4f81-8da1-1003be51b142,anyone,5.8,Palm Valley,US,30.17746,-81.38758,"19486 Miller Walk, South Eileenmouth, TN 90409","Unit 2664 Box 3506, DPO AA 21073"
add08584-ce26-4f69-bd10-4ad3bd1a5a20,a5fc9954-ea24-4a08-a2c5-a6bde4dc542f,2024-02-13 22:13:29,Anthony Turner,katherinefoster@example.org,84,include,address,8,97.27,770.63,770.63,North,7.53,489,Cash,Refunded,Pending,15.47,UPS,be8fbfa4-42b9-472e-8419-12993053d3c8,again,7.53,Watsonville,US,36.91023,-121.75689,"887 Paul Forge, West Andrew, PR 68103","1079 Thornton Shoal Apt. 410, Janicechester, MS 99468"
b8df16d4-9d6e-428b-8d16-fe35600c8d73,842b6138-87ab-4a2e-b8c9-dd61b155017c,2024-05-02 01:54:17,Margaret Hamilton,adelgado@example.org,35,sister,continue,1,57.28,56.6,56.6,South,0.68,180,Debit Card,Paid,Delivered,8.19,FedEx,d6428ac2-7384-40f0-9f2e-f47648398f1d,price,0.68,Keizer,US,44.99012,-123.02621,"0431 Henderson Street Suite 516, New Susan, OH 55119","10932 Hannah Mission Apt. 370, Mathewshire, KY 37426"
0f03def6-d7b7-4c8a-bc5f-3708d59dc5bf,f8093d4b-4c3d-4917-9a55-dd5321814b8a,2024-05-18 02:08:03,Cameron Dyer,ebrown@example.net,54,end,hotel,1,96.92,91.58,91.58,North,5.34,255,Cash,Unpaid,Shipped,8.72,DHL,e4605f34-0503-47a0-9db1-94aab573cbbd,there,5.34,Norco,US,33.93113,-117.54866,"0115 Hart Light, Lake Kylechester, TN 41803","45828 Matthew Path Suite 999, Clementsshire, PW 20027"
6a486407-c6fc-4c66-adc4-4be2b5105b87,587ec5c0-b704-4c73-a787-7c478ef4876c,2024-03-05 02:20:44,Wyatt Hernandez,cummingsmelinda@example.net,100,face,fact,10,83.14,821.58,821.58,West,9.82,307,Debit Card,Paid,Shipped,16.76,FedEx,da453041-38c1-4a1d-916a-d8e2cfbf1d89,seem,9.82,Lexington,US,33.98154,-81.23621,"62988 Moran Center, South Paulchester, FM 52025","2082 Ross Grove Suite 950, West Natashamouth, FL 20871"
96edb51b-ead2-4144-8f38-246d0648d8ef,d09a4a57-397c-4b07-bc1e-1f0193556aed,2024-07-02 02:43:27,Jason Chen,rebecca58@example.org,92,science,store,3,72.19,211.28,211.28,North,5.29,378,Cash,Paid,Shipped,16.08,FedEx,0a32ae5a-8a46-4e1a-a3e0-7f9896938107,wish,5.29,Scottsdale,US,33.50921,-111.89903,"435 Sara View, Wrightstad, GU 09706","4860 Espinoza Tunnel Apt. 194, South Jose, FL 45503"
3e22881d-ec16-4e1b-b7b9-a28d143ba9cc,7d5d1b03-c5d3-4eb5-9a44-844021b17ac4,2024-02-22 23:57:42,Todd Ward,mckayrichard@example.net,83,size,forward,2,39.89,78.36,78.36,South,1.42,229,PayPal,Refunded,Shipped,6.34,DHL,fb0fab25-5efa-47ee-9b98-bb5a73dc2347,everybody,1.42,Scotch Plains,US,40.65538,-74.38987,"10504 Paul Manor, North Marcusfort, NM 57949","280 Brian Oval, East Paul, DE 39599"
499942fb-1112-4647-8c13-7ce8887197ff,50dd6797-83b3-4d20-88ed-24336e335ed5,2024-07-31 11:23:00,Edward Harris,ecraig@example.com,5,light,but,7,31.33,217.87,217.87,North,1.44,216,Cash,Paid,Cancelled,7.15,DHL,890c5e5c-d805-4484-9b10-811ba99b85cb,short,1.44,Fresno,US,29.53885,-95.44744,"Unit 7110 Box 5305, DPO AA 79066","90391 Nicole Views, Territon, UT 08853"
21bd7004-391f-42a7-b477-f792f8898e36,0ba154d0-7620-407d-bb8f-f150f2e6112d,2024-03-25 10:46:11,Andrea Callahan,ajones@example.net,86,education,southern,6,22.34,129.84,129.84,East,4.2,102,Credit Card,Unpaid,Pending,15.42,UPS,30045411-3104-4338-aa67-82a88ac0035f,well,4.2,Kensington,US,40.64621,-73.97069,"550 Ramirez Groves Apt. 456, West Jadefurt, LA 38693","529 Mark Drive Apt. 999, South Michael, HI 24749"
fd79db07-4564-44c6-a9bd-620fc88c7e19,8c6eb9a6-a916-4a7d-9676-b366b7194b6f,2024-03-10 02:12:39,Amber Martin,jenningsteresa@example.net,79,quite,listen,1,86.31,76.49,76.49,South,9.82,161,Cash,Refunded,Shipped,7.57,UPS,b0738b8a-550c-4720-89fc-83a44ea1260b,hope,9.82,Fairview Heights,US,38.58894,-89.99038,"2138 Murphy Extension Suite 839, Williamsport, ME 93797","4431 Brown Forge Suite 854, Michaelport, ME 23438"
c689cb24-65c8-4ad5-9d96-471f5f5f012f,de68f027-b58c-4618-b465-f252f798f127,2024-05-16 12:12:09,Angela Jackson,lawrencejohn@example.org,77,develop,study,6,29.02,172.87,172.87,North,1.25,348,PayPal,Paid,Shipped,17.16,FedEx,8b94983b-17c3-43db-9ce4-3119d6b18c19,radio,1.25,Taunton,US,41.9001,-71.08977,"22060 Brian Trail, East Craig, DC 73587","192 Brown Meadows, Lake Leah, GA 54964"
5d811d96-851b-43f6-adbf-4d1bd8b0a006,6b6ce8f5-099d-476f-a827-f0b236ec5935,2024-03-23 07:13:18,Darren Jenkins,wmoran@example.net,48,trade,indicate,2,61.38,113.57,113.57,South,9.19,418,Debit Card,Refunded,Pending,12.08,UPS,e72e77b1-bd8d-4be4-a90e-06caf6a929e3,down,9.19,Port Richmond,US,40.63316,-74.13653,"57533 Jones Ways, Deanberg, CA 60485","149 Nicole Mews, Rhodesside, IL 91483"
84bd3237-9cb1-4bfc-b12f-4cd73c774a0f,73051629-3bc5-425e-8ca5-2cbd298ec85a,2024-03-24 16:47:43,David Johnson,williamsjohn@example.com,91,television,first,10,59.03,582.68,582.68,East,7.62,20,Cash,Unpaid,Pending,11.21,DHL,a7b7625b-0a39-4a02-a349-d996b924fc99,others,7.62,Nampa,US,43.54072,-116.56346,"Unit 6879 Box 9994, DPO AA 39654","22447 Natalie Vista, Cassandrafort, KY 23263"
dcb21675-d228-4f4b-8b4f-950fd0681b6a,6ce5faa3-52fc-4e96-ae01-d7fb03a0a268,2024-01-22 09:59:18,Kathleen Williams,wilcoxeugene@example.com,51,walk,add,7,24.89,167.69,167.69,North,6.54,342,Cash,Refunded,Delivered,18.3,USPS,e0158c3e-89a8-42e2-9461-70e7c391bf3f,month,6.54,Pahrump,US,36.20829,-115.98391,"099 Michael Summit, Port Kim, DC 87521","9792 Green Mall Apt. 543, Lake Mary, PA 66216"
5a2e2628-6505-456b-acf3-88b5b8e7bc4d,70e9382b-35bb-45e3-8cfe-fd55691753b5,2024-02-13 06:47:24,Amy Scott,reyesjennifer@example.net,13,all,lay,7,83.28,573.01,573.01,West,9.95,16,Debit Card,Refunded,Delivered,11.99,UPS,c99518ec-2c93-4364-b34c-92758d988898,run,9.95,Toledo,US,41.66394,-83.55521,"670 Laura Prairie, Davenportshire, LA 48806","16956 Morgan Lodge Apt. 087, Wrightstad, ME 76433"
ca37330a-115b-4039-b02a-6a144d57559a,63d2c49d-3573-49ef-a6c2-9e33816aa09a,2024-03-06 21:05:04,Stephanie Lester,flemingmark@example.org,57,push,either,4,81.69,316.78,316.78,South,9.98,109,Credit Card,Refunded,Delivered,10.79,USPS,a4299947-c40f-4034-9a54-3c5b82cedd70,specific,9.98,Jersey City,US,40.72816,-74.07764,"5216 Julia Spring Apt. 889, Lake Charles, TN 12018","8039 Charles Place, South Amandafort, VT 54200"
e79d3338-e686-4ac8-8f5e-3c1bf500386c,3cb90f30-c91a-4d89-9539-b840892b99b0,2024-03-03 02:27:19,Dawn Burgess,leeevans@example.org,50,the,face,6,25.87,154.68,154.68,North,0.54,304,PayPal,Refunded,Delivered,18.47,DHL,cb11a0da-e8fd-4427-a407-905312802c5a,require,0.54,Lexington,US,33.98154,-81.23621,"6811 Myers Extension Suite 736, Lindseyport, WV 31883","Unit 5150 Box 9039, DPO AP 73270"
24c308b2-1551-432d-a97c-6ceb154abf3b,1f182f73-24c1-4d4b-9d2e-e6604c95b04a,2024-07-13 07:22:24,William Mckenzie,hreynolds@example.net,41,doctor,within,4,30.91,117.83,117.83,East,5.81,254,PayPal,Refunded,Cancelled,18.54,DHL,ccd26372-2a71-4a08-910d-32b880c28b96,turn,5.81,Lompoc,US,34.63915,-120.45794,"PSC 8222, Box 6451, APO AA 04904","7226 Marisa Square Apt. 832, South Denise, NE 93769"
2edd4f40-ffbb-4dab-8060-79d215e8a473,90436b51-cc1d-471d-bb7f-b82b051836d7,2024-03-10 17:34:54,Laura Cantrell,xdelgado@example.com,69,her,lot,5,71.2,349.24,349.24,East,6.76,292,Debit Card,Refunded,Pending,12.33,FedEx,75d22aaa-58c6-4b2a-933b-10f64f8107c1,she,6.76,Davis,US,38.54491,-121.74052,"12886 Jessica Hills, Robertport, CA 26322","3619 Patel Harbor Apt. 403, Larrystad, IL 08994"
493b8492-cbe4-4e8b-86ca-1633bbb169f1,de23e476-2fb9-4712-a069-11a99ce5e5bc,2024-03-30 06:11:04,Joanna Rush,anthony55@example.com,57,worker,admit,2,65.87,123.14,123.14,West,8.6,154,Cash,Unpaid,Shipped,14.14,DHL,5f747409-ca68-4a9a-ba5f-d33fdd2265c0,cut,8.6,Front Royal,US,38.91817,-78.19444,"3442 Debra Fort Suite 027, North Patrickland, AK 28159","762 Danielle Street Suite 425, Riveraville, VI 86489"
fcdeb2ac-cbd4-49c6-a7d3-a517a4405a23,96655aca-af91-4220-9e87-527e410f6b7a,2024-04-14 03:22:47,Frank Williams,stewartanna@example.net,6,much,authority,7,16.19,108.75,108.75,South,4.58,143,Debit Card,Paid,Pending,15.37,DHL,f016c4f3-00e2-4943-b39a-6d62d631d5c9,his,4.58,Acworth,US,34.06635,-84.67837,"87124 Tanner Hollow Suite 172, Mendozaside, VI 71368","718 Craig Well, Jonathontown, NJ 35513"
f7298adf-f3a5-403b-84d0-3806faed0557,59e17191-bf3a-4b3c-8d6e-3c1422782aaf,2024-04-26 09:43:50,Arthur Miller,thomasarnold@example.com,44,somebody,central,9,76.3,684.26,684.26,West,2.44,76,Credit Card,Paid,Pending,14.95,USPS,80522f3f-025d-45ff-8d65-4e52a40923d9,consumer,2.44,Lino Lakes,US,45.16024,-93.08883,"878 Jimenez Causeway, North Kent, NH 34966","760 Willis Curve Suite 638, North Monicamouth, MN 86285"
fcef5c56-d6d9-4fd4-810b-51fcc84a4a57,bd200d1e-6346-4474-8ad3-55b366fe38a8,2024-01-13 19:48:48,Justin Reyes,coleanne@example.org,9,trip,improve,7,38.86,270.3,270.3,East,1.72,265,Debit Card,Paid,Shipped,13.78,UPS,af2a9c90-46c9-4623-88e3-c9ba60fa5873,others,1.72,Muskogee,US,35.74788,-95.36969,"9239 John Lake, Williamsside, AL 46560","158 Marc Key Apt. 854, Crawfordborough, ND 26805"
ff454191-0b2e-44ad-bef5-682b4db01f6b,18df2427-4b8d-4d2a-b7e1-a4f3123513b7,2024-01-04 22:12:14,Tammy Stevenson,williamsondale@example.net,95,its,today,6,35.66,206.18,206.18,North,7.78,282,Cash,Refunded,Delivered,18.39,DHL,6cd6ef7a-51ab-4244-90ff-9a0b2afd5b3f,simple,7.78,Acworth,US,34.06635,-84.67837,"001 Sanchez Street Apt. 225, Colleenton, OH 44445","3299 Christopher Pass, West Saratown, VA 37317"
51058fb6-05b4-4c03-b11a-45d5cd8f0fe5,d4f401d4-10b6-4dad-a93d-b27c779b9329,2024-02-08 04:27:46,Bill Castillo,lydiapreston@example.com,66,information,TV,3,38.08,106.63,106.63,East,7.61,437,Cash,Refunded,Pending,11.65,DHL,c2e8f4f3-bd2f-461f-b932-8c60cbc18ee2,another,7.61,Chillum,US,38.96372,-76.99081,"286 Thomas Knoll Suite 713, Hinesbury, MA 67234","434 Sarah Skyway Apt. 545, New Sydney, PW 07423"
2641c52a-cf93-44e7-b370-d10c82c6b912,35ed24d3-03bf-4355-9e19-c9ad5bf61043,2024-01-19 00:48:42,Robert Christensen,alexandersmith@example.com,44,one,discover,4,44.39,171.89,171.89,West,5.67,228,PayPal,Unpaid,Pending,16.28,DHL,e5152375-2cb9-4587-a01b-7b08c26eb4e6,serious,5.67,East Haven,US,41.27621,-72.86843,"9831 Christopher Terrace Suite 143, East Candicechester, WV 69295","391 Nelson Bridge, Paulside, GU 19491"
5ddd0610-91c5-47da-8ddd-d4d3855061f2,3a0bd331-dafa-49d7-9d90-85b4dc504598,2024-01-10 16:09:35,Jo Randolph,danny42@example.com,23,western,return,2,39.17,75.21,75.21,West,3.13,156,Credit Card,Refunded,Shipped,11.94,USPS,d7dcae1e-d2f7-4b4a-b2f9-78f49ffe7b27,eye,3.13,East Haven,US,41.27621,-72.86843,"0238 Justin Camp, Houseside, IA 70765","16134 Turner Rapid Apt. 813, Andersonshire, UT 89626"
0b9460a4-8d58-4f4f-a3cc-c0dfb5c69dcb,0ed068d3-5234-4766-9a67-b40203089667,2024-03-06 20:41:39,Alexander Mays,williamseduardo@example.org,43,religious,you,1,49.35,44.87,44.87,South,4.48,370,Credit Card,Refunded,Cancelled,19.4,UPS,518eb39d-1779-4ca4-ba52-19a027d23c15,practice,4.48,Bourbonnais,US,41.15376,-87.88754,"1530 Johnston Groves, Connerside, IL 80009","704 Joseph Islands Apt. 942, New Nicholasstad, MS 95956"
09d7d850-ff53-4e1e-a95d-2347e88a9ad2,596caca3-179c-4c41-86f2-28afef849c8a,2024-04-21 00:42:49,Nicole Avila,kimberlymendoza@example.org,75,table,order,10,75.65,746.63,746.63,East,9.87,300,Credit Card,Unpaid,Cancelled,5.22,DHL,962fcdae-80fc-4148-884d-3db3e26a55ef,go,9.87,Bridgeport,US,41.16704,-73.20483,"106 Kristina Loop Apt. 656, Lake Tommyville, GA 25286","5989 Ryan Key Apt. 359, New Paige, OK 06876"
fa931676-651b-4615-a58a-33eb2928ed7f,f0165990-0200-4c5d-ba38-bd84f71e39dc,2024-04-03 19:05:22,Dr. Tristan Parrish PhD,ffrazier@example.org,42,pick,edge,4,31.47,123.03,123.03,South,2.85,301,Credit Card,Refunded,Cancelled,16.09,FedEx,e199ee28-193d-4045-b454-f8a43ba948ff,early,2.85,Copperas Cove,US,31.12406,-97.90308,"18590 Spencer Vista, Laurachester, AR 25485","628 Griffith Lock Apt. 091, Lindseyton, AL 79366"
fe142c9f-b236-4a93-bdb9-64bed0cd27a9,837e2b3e-f838-43ea-a3b8-4bede02bb8d5,2024-03-13 04:21:42,Karen Morales,jharrington@example.org,100,later,expect,2,52.82,99.03,99.03,South,6.61,266,Debit Card,Unpaid,Shipped,15.97,FedEx,2446b06d-4179-4dec-beba-c396a8c29471,article,6.61,Hueytown,US,33.45122,-86.99666,"290 Michael View Suite 473, Racheltown, DC 33929","95406 Julie Road, Muellerland, ID 12584"
155d1f43-6ec3-4777-b298-68fa4ce61332,d1098a44-a2d3-4756-815f-e65281896883,2024-01-13 21:34:01,Kaitlyn Green,ujensen@example.com,58,quality,build,6,29.28,171.72,171.72,East,3.96,197,Credit Card,Refunded,Shipped,19.91,FedEx,abe81f41-5eec-4e2e-bfa3-53308add1d7c,assume,3.96,Rosedale,US,39.32011,-76.51552,"12006 Johnson Pass Suite 705, Gabrielhaven, FM 29205","6474 Little Coves Suite 047, Dominguezstad, TX 68316"
e2d9bf51-7d11-48bd-850e-8132629c49ec,21054531-281b-46bf-ab99-818241e3d460,2024-01-08 21:39:58,Bonnie Thompson,vpeterson@example.com,83,their,war,1,91.22,81.84,81.84,East,9.38,92,Cash,Unpaid,Shipped,12.38,UPS,3e29334d-3035-4631-835f-6dd24818c95b,raise,9.38,Copperas Cove,US,31.12406,-97.90308,"37795 Jones Crossroad, East Stephenburgh, MN 11921","PSC 3741, Box 0967, APO AA 88920"
66f7dc84-43c3-4302-91b5-fcd1a8dfefd6,e2319cf0-a1d1-4d15-834d-4bda0de067e4,2024-04-18 02:40:41,William Morris,brianjones@example.org,62,within,view,4,29.94,116.01,116.01,South,3.75,119,PayPal,Paid,Shipped,14.02,DHL,2a1e1dcb-396e-41f8-8729-fe84f4eac153,public,3.75,North Lauderdale,US,26.2173,-80.22588,"9779 Mcgee Inlet, Port Jacobmouth, NV 73799","6185 Valencia Lane Apt. 538, Stephaniemouth, PW 69133"
c7bce4be-7db1-4f30-b729-090a3253b11d,b66ab187-b9c2-4d98-9eee-e0de7e0fffab,2024-01-26 01:52:21,April Duncan,cynthia75@example.net,46,friend,participant,4,59.98,238.69,238.69,South,1.23,48,Cash,Paid,Delivered,8.19,USPS,255e327d-e500-4903-a722-defc1c405aba,network,1.23,Rolla,US,37.95143,-91.77127,"09081 Lam Mountains Apt. 863, Catherineville, AR 43928","223 Pamela Meadows, North Kendra, WA 62443"
375eb0e5-8c39-47b3-bd78-bfcc32fef6d3,2d1528ea-a56e-47ac-a54a-94245c8b3485,2024-05-20 11:26:23,David Ross,amandalyons@example.com,88,first,cause,6,13.86,76.58,76.58,West,6.58,246,Credit Card,Refunded,Delivered,14.85,DHL,80a1d035-82b8-47f4-9f62-187c97c370e7,relate,6.58,Cypress Hills,US,40.67705,-73.89125,"7100 Potter Isle Suite 981, South Kyle, FM 17346","30042 Rogers Tunnel, South Gerald, FM 77450"
9822a5e5-06b8-4cd2-9ab2-a946f9555971,492c7e0a-b561-4c39-b7bb-226022da40e6,2024-04-23 18:31:24,Paige Smith,lynchjoyce@example.com,97,medical,kitchen,10,48.0,474.92,474.92,South,5.08,383,Cash,Paid,Shipped,14.88,USPS,0bbe1b52-4425-491f-aaf8-aa051892b0cf,today,5.08,Encinitas,US,33.03699,-117.29198,"PSC 2222, Box 1248, APO AE 25005","385 Simmons Garden Apt. 585, East Ellen, LA 58441"
f2331472-2e58-4ad0-8fa9-e0a6bf48d614,017fb198-6432-4618-908c-214143a3954f,2024-07-30 17:32:43,Christina Reynolds,changdavid@example.net,99,good,explain,3,74.14,218.56,218.56,West,3.86,307,Cash,Unpaid,Delivered,15.06,USPS,d1b9046e-b56a-42ab-960b-0965e2b800c6,budget,3.86,Newburgh,US,41.50343,-74.01042,"USNV Ryan, FPO AA 13923","1436 Cynthia Orchard Apt. 485, Lake Bryanton, UT 09502"
9c7e2133-5659-4b79-bf19-d9c09db0ed1d,69c6b43e-b517-4849-b382-1352f8ebec75,2024-02-11 07:25:03,James Roberts,max79@example.com,58,blood,suffer,6,35.59,212.25,212.25,East,1.29,98,Cash,Refunded,Delivered,14.18,FedEx,a399f628-2c8e-4bfa-9e66-12ad0ddd0516,walk,1.29,Odessa,US,31.84568,-102.36764,"5484 Jodi Glen, Meltonside, TX 94810","PSC 5283, Box 5129, APO AA 20154"
4f8b557d-67b7-409c-90e6-29a093f16837,b6012791-75c1-4e4c-9a92-2a49c0b8e230,2024-05-20 05:56:59,Debra Smith,stevenskenneth@example.com,84,somebody,ball,2,67.31,129.17,129.17,North,5.45,9,Cash,Refunded,Pending,16.15,UPS,a3ed7b10-a9b6-46eb-9967-911e60b6bb9a,garden,5.45,Aloha,US,45.49428,-122.86705,"668 Michael Points Apt. 484, Kathrynton, TN 21448","USNS Crawford, FPO AA 52938"
5ce47acb-0877-44fe-9540-8c9dd74a61a7,ff1926cf-607f-42be-976f-8653c93871ad,2024-03-28 09:13:36,Betty Williams,markkline@example.org,89,whether,appear,8,70.16,557.25,557.25,East,4.03,419,Debit Card,Paid,Cancelled,17.98,FedEx,81beb6ac-3427-435b-91ab-1a28c848fbff,stuff,4.03,Canton,US,42.30865,-83.48216,"61374 Nathan Forest, Port Williamland, GU 88392","Unit 7423 Box 6582, DPO AA 82415"
44312120-10c4-4735-959e-80aa700bfb27,e4c7968b-de10-45f8-aaea-24435c7f958a,2024-04-03 23:50:20,Jamie Bell,taylorlaura@example.org,88,day,television,6,74.24,441.38,441.38,West,4.06,245,PayPal,Refunded,Pending,11.25,USPS,dfb46da6-0219-4b8d-86b1-bc9448a73fb7,career,4.06,New Canaan,US,41.14676,-73.49484,"USNS Buck, FPO AE 14992","9976 Jackson Trafficway, Lake Jeffrey, TN 49829"
82e9902b-8c87-4fc2-82a9-01f09ca16ba4,38d9f597-f4b2-458f-bd13-18599be8fef6,2024-05-30 08:41:11,Kathleen Smith,robert97@example.net,15,themselves,and,7,16.65,112.25,112.25,North,4.3,158,Debit Card,Unpaid,Delivered,7.36,DHL,807a82f7-7efb-46ae-95b8-f7436742a9a8,accept,4.3,Claremont,US,34.09668,-117.71978,"02816 Scott Fort Suite 882, Lewisview, KY 01453","4015 Orr Crescent Apt. 444, Lake Kirsten, PA 87160"
82896cc3-1d33-4ac8-a2ba-16bb33bb9a02,c5fef975-fb80-4b53-8994-3670cffaeea7,2024-05-28 01:54:27,Karla Walker,imiller@example.net,26,range,impact,5,44.22,218.42,218.42,North,2.68,84,Debit Card,Refunded,Shipped,19.56,DHL,861c9b84-a00a-409e-b874-554ae6803156,establish,2.68,Pottstown,US,40.24537,-75.64963,"6508 Corey Landing Suite 501, Lake Melissatown, DC 87211","588 Karen Villages Apt. 998, Port Richardview, TX 70950"
45c17c7b-5501-4adb-b3c2-70668cd3cffd,a3a79712-4c0e-4e3a-83d0-66bc651de754,2024-06-05 14:30:14,Michelle Jackson,donna92@example.com,84,rich,else,7,63.4,435.56,435.56,East,8.24,272,Credit Card,Unpaid,Delivered,15.61,DHL,69604db1-2f7a-469d-aa89-9e05a3fe645d,including,8.24,San Gabriel,US,34.09611,-118.10583,"6622 Holly Vista, Palmermouth, MD 70444","534 Gonzalez Ridge, East Brendashire, OK 07027"
aff36433-f69d-489a-9235-ae8b31700aa4,6a2d8b9d-07e6-47e5-9698-4f27af654c78,2024-01-18 08:33:01,Brandy Hogan,stephanie95@example.com,1,various,carry,5,20.9,96.97,96.97,North,7.53,226,Credit Card,Paid,Pending,18.63,UPS,15a424f9-14b7-4435-98bd-23a789c53165,ability,7.53,Iron River,US,46.09273,-88.64235,"3651 Trevor Ferry, Leehaven, NV 91899","764 Hess Drives, East Thomas, MT 27836"
fc0b835e-a661-4623-8aad-49b9e40175f4,81152606-fda4-47a1-9878-be26404ec20d,2024-02-22 00:23:57,Amanda Miller,lsilva@example.com,48,fall,of,10,89.01,889.02,889.02,North,1.08,395,Credit Card,Paid,Shipped,17.9,USPS,1950374b-a8f5-4bde-9d1f-eb828a88ea53,her,1.08,Thomasville,US,35.88264,-80.08199,"08745 Thomas Mill Apt. 480, Michellebury, AZ 80089","00291 Victor Squares Suite 427, Port Teresa, IN 63630"
e9b853c7-37bc-49df-a98f-ebd4a1d936c7,7cc6c017-c026-4c83-b3b7-8dea4f031a1c,2024-04-15 23:58:44,Adam Olson,michael42@example.com,99,nation,week,5,73.76,362.79,362.79,North,6.01,14,PayPal,Refunded,Cancelled,10.67,FedEx,c8eced08-30f5-44e9-9da7-2e75a64902f5,anyone,6.01,Harrisburg,US,40.2737,-76.88442,"53006 Barry Pike, Hayesville, MN 97656","24549 Anderson Drives Suite 030, Murphytown, PR 49843"
9a7b73bb-17d1-4679-8fcb-0f168545a29b,fd6d120c-0855-4d8e-92e8-7e8b29da0760,2024-01-04 07:34:21,Deborah Mclaughlin,michaelellis@example.com,42,carry,organization,3,73.83,216.14,216.14,South,5.35,490,Credit Card,Unpaid,Pending,9.36,USPS,97ca1b9b-03f8-40d2-a3da-f91c14f49f71,share,5.35,Greenville,US,33.41012,-91.06177,"48867 Dawn Ford Apt. 769, Lake Joanneburgh, KY 53426","7784 Briggs Mountains Suite 822, West Leonard, MN 85744"
ddf00c8c-9934-4d5b-a7db-39c651ed6b98,e54302fb-d02d-4efa-bd90-e868d3c9fbfb,2024-05-31 11:47:18,Kathryn Rodriguez,samuel42@example.org,11,likely,phone,6,74.79,446.25,446.25,South,2.49,206,PayPal,Paid,Delivered,12.31,FedEx,74fda6d0-618b-4239-81af-6de8fd684d03,life,2.49,Pekin,US,40.56754,-89.64066,"USS Burke, FPO AA 35529","4276 Terri Canyon, West Audreytown, AZ 65233"
40a03cce-5bc4-4110-8e35-e73cbdb87ebc,f609f8c9-5d87-4678-bb86-05f7879d3827,2024-04-13 16:43:51,Jessica Howard DDS,hillkimberly@example.com,38,expect,probably,3,57.44,168.84,168.84,East,3.48,483,Cash,Unpaid,Delivered,8.7,USPS,a6ab3a08-5535-4cf9-8975-769838b87ce6,memory,3.48,Bothell,US,47.76232,-122.2054,"19034 Fleming Road, Tatechester, GA 21778","4939 Davis Island, Erinfort, VA 31523"
9f3abf7f-7c0a-4f46-8cce-e5b5e8a1a37c,457ee909-a14a-4bec-898b-0cc79b570fac,2024-06-07 19:45:41,Vincent Mitchell,csparks@example.net,4,thought,large,10,29.58,290.15,290.15,North,5.65,479,Credit Card,Paid,Shipped,6.35,DHL,5031a237-d631-4edf-88a7-78a453eec64d,dream,5.65,Carlsbad,US,32.42067,-104.22884,"394 Barker Circle Suite 002, Lake Rodney, OR 93351","42054 Melinda Well, Port Bonnieside, IN 42195"
38d90afe-acd5-4686-a4d4-6b07ecb847b4,4723fb23-03aa-4dc5-883a-605c91ea0939,2024-04-10 01:02:41,Bryan Malone,paigebarnes@example.net,13,eight,fight,7,25.28,170.33,170.33,North,6.63,57,Credit Card,Unpaid,Delivered,16.82,DHL,019c4dca-6059-47fb-aaab-f07967e8714a,concern,6.63,Harrisburg,US,40.2737,-76.88442,"5730 Brown Spurs Apt. 629, Port Brenda, NC 56070","921 Thompson Corners Apt. 433, West Mitchellside, NH 58703"
8bf09804-5114-4aeb-b17b-7975f9ebfcf5,c2455f8e-3733-4bef-9bdb-f164b6f5b146,2024-03-02 22:16:03,Justin Ware,jacksonanne@example.net,57,population,his,5,42.64,211.96,211.96,West,1.24,65,Cash,Unpaid,Pending,9.9,DHL,c6c19e2e-6827-4637-b0d3-86f3e148b7a8,become,1.24,Palm Valley,US,30.17746,-81.38758,"90108 Oneal Station, Jenniferport, PA 94382","03458 Michael Key Suite 322, East Elizabethland, MS 11288"
d3e060d8-945d-41d6-bfb3-ab813ec4c4bd,0c156db4-653f-4c54-91ea-2efc84081252,2024-07-28 12:49:11,Mr. Michael Morgan,brewerandrew@example.net,64,a,enough,1,30.31,27.89,27.89,South,2.42,104,Cash,Refunded,Cancelled,14.48,UPS,65059dc6-cd14-42d6-a071-3a4c58730a23,feeling,2.42,Davis,US,38.54491,-121.74052,"4537 Brenda Squares Suite 379, Davisville, IA 64757","803 Susan Plains Apt. 507, Rojaschester, WY 63039"
a9011c16-17d7-4b36-beef-0a5f6ef1e1b5,8aff9031-8c80-43ef-999f-e9c54bf1b32a,2024-05-11 02:04:20,Franklin Barrett,ross43@example.com,98,large,first,4,10.79,37.6,37.6,North,5.56,386,Credit Card,Refunded,Delivered,19.09,DHL,9ee16e4d-b574-4dd4-a417-b9645839aac1,feeling,5.56,Scotch Plains,US,40.65538,-74.38987,"188 Michael Plains Suite 151, Darrylton, IL 53653","786 Brandon Oval, South Michael, AS 66394"
b1d87d7a-bce3-4a4c-82ce-7629e7682fc5,a43cff19-3e00-4241-97e1-0468a9a03f26,2024-07-19 23:47:19,Kristina Williams,paulsanford@example.net,24,start,traditional,4,82.19,327.83,327.83,West,0.93,494,Debit Card,Refunded,Delivered,5.21,UPS,4a275b60-1acc-43f9-8110-04a074fd9cf2,open,0.93,Keene,US,42.93369,-72.27814,"040 Grant Lock Apt. 725, Kentville, GA 27946","276 Lynch Lights, South Jesus, CA 30717"
7aa80a06-bb16-4cb9-ab1e-31166c2a42f6,f0e1f9ec-3853-4878-afc6-b0a9a37cf586,2024-04-21 13:28:44,Kathryn Wilson,christianjames@example.org,9,have,can,10,94.0,938.16,938.16,South,1.84,331,PayPal,Paid,Shipped,12.32,DHL,7449c0b0-0e40-4186-bf87-1ee656a5fed1,score,1.84,Pahrump,US,36.20829,-115.98391,"569 Taylor Street, Jenniferbury, WY 02291","06028 Tonya Views, Fletcherborough, VA 81193"
5be8d97e-d43b-49db-a875-f1bacd23b331,9761f7a8-a52b-471f-9552-b6c311ca82bd,2024-05-30 02:48:11,Stacie Nicholson,mcdanielangelica@example.com,44,country,along,7,33.27,223.39,223.39,West,9.5,432,Credit Card,Refunded,Delivered,18.76,DHL,d391b0fa-f843-4709-b226-c012da404039,leg,9.5,Covington,US,39.08367,-84.50855,"1498 Hayes Unions, New Christine, NC 82397","Unit 0066 Box 9693, DPO AP 12248"
8c8386b8-0ae3-40df-944d-3a5a73784b75,8c47f4ff-f1a1-42b1-9cea-f495b17d7eff,2024-02-27 05:37:51,Dakota Perez,uthompson@example.com,64,age,star,2,11.51,19.27,19.27,East,3.75,364,Debit Card,Refunded,Shipped,5.58,UPS,3efd3748-1b42-4d09-af28-33d2623e946f,stand,3.75,Opportunity,US,47.64995,-117.23991,"5547 Romero Meadow, Richardmouth, GU 51768","8115 Davis Crossing, South Vickie, WY 33563"
0cd37aa7-5db0-4096-9d42-0cf53f1adcd6,8ce14085-e0d4-40b0-b931-a865d857470b,2024-07-09 18:03:59,Crystal Perez,sbanks@example.org,51,control,natural,7,50.41,350.85,350.85,North,2.02,426,Debit Card,Refunded,Cancelled,10.99,FedEx,a6ff1a9a-7576-4768-8b28-41559299a49c,real,2.02,Redding,US,40.58654,-122.39168,"USS Frank, FPO AA 78401","85996 Thompson Viaduct Apt. 213, East James, WV 02545"
2bee7a60-c966-4020-bfbf-f0295b67119e,73c13ad6-8b88-478c-8e8c-33cf5ad76ec0,2024-05-24 23:50:18,Jose Cain,andersonadam@example.com,42,you,safe,3,32.96,97.55,97.55,North,1.33,167,Cash,Unpaid,Delivered,15.96,UPS,6c9303c0-bed5-491b-8dbb-1813d630c142,view,1.33,Stockbridge,US,33.54428,-84.23381,"09555 Kent Lock Suite 114, Lake Eric, VT 93400","712 Alicia Shoal, Port Sean, GA 02159"
1723a7a2-387d-4942-9795-8a63b002ef7b,5ae7cdba-cade-4252-91e4-152aaae0fd0e,2024-01-03 19:44:38,Mary Johnson,jblanchard@example.net,84,consider,trouble,5,51.49,250.04,250.04,South,7.41,373,Credit Card,Refunded,Delivered,7.62,FedEx,27a68684-cbce-418d-a4a6-f85bbb5181da,accept,7.41,San Gabriel,US,34.09611,-118.10583,"993 Brown Parkway, Port Regina, MP 03455","PSC 4753, Box 3565, APO AE 35930"
87b89a65-2810-4a67-b37e-b8db571b1dea,22cd279f-0d60-49c3-a4d4-da69aec85e10,2024-05-20 10:07:51,Philip Wyatt,jennifermartin@example.net,4,serious,street,3,86.03,249.12,249.12,West,8.97,330,Cash,Unpaid,Pending,18.17,USPS,422703dc-9990-4551-8212-f76afc866dc0,manage,8.97,Saratoga Springs,US,40.34912,-111.90466,"7084 Farmer Tunnel, South Vickichester, IA 05576","776 Williams Falls, West Michael, AL 01659"
860722a6-5b1f-469a-ad60-e7365b28bd23,24a88188-6e22-4504-9c6d-4e737a83e3d7,2024-06-17 02:12:04,Patricia Kennedy,allisoncolon@example.com,67,threat,Democrat,1,90.86,90.56,90.56,West,0.3,356,Credit Card,Paid,Delivered,5.62,USPS,43fbecb1-2429-46d2-a789-463320484f24,hospital,0.3,Palestine,US,31.76212,-95.63079,"866 Vaughn Branch Apt. 187, North Michael, CT 64954","021 Carr Ford Apt. 990, Buchanantown, WY 34146"
ff5753d9-9d42-42ff-a132-ce3c8542be59,c6c51003-50fe-4f1e-ac55-39eae43aac18,2024-06-15 13:44:42,Robert Robinson,ann59@example.org,11,statement,world,1,24.13,15.55,15.55,West,8.58,404,Debit Card,Unpaid,Delivered,19.75,FedEx,cb80913d-0aa7-4150-b4ed-f848fbd23519,debate,8.58,Bothell West,US,47.80527,-122.24064,"48838 Ramsey Brook, Tinabury, AS 58489","23239 Smith Brook, North Wandashire, AR 42536"
727e36b8-5c23-4bfa-83bb-5a818de0b704,faf51d56-a448-4015-a174-4e2a9d183e56,2024-04-22 00:46:23,Lori Caldwell,hmccoy@example.org,71,under,address,5,97.21,485.42,485.42,West,0.63,187,Debit Card,Refunded,Delivered,16.95,UPS,b03a4839-0d83-43cf-987f-76a971d3eb55,make,0.63,Scottsdale,US,33.50921,-111.89903,"9835 Tammy Field, Anthonyhaven, FM 47169","195 Williams Rapid Suite 011, West Amandamouth, MI 37107"
661b2263-f21a-4a8a-b7c3-e6e8092c421e,77ecc5bf-a752-4439-9089-a7e383c59cc8,2024-01-31 05:14:19,Katelyn Gonzales,lindseyjones@example.org,30,three,may,9,82.63,743.51,743.51,West,0.16,59,Debit Card,Unpaid,Shipped,5.16,UPS,04b1e8bd-48be-4aae-88a5-df448775bc92,when,0.16,Dublin,US,32.54044,-82.90375,"779 Julie Garden, Susanside, IA 57731","27356 Brenda Route, Port Jodishire, IN 88806"
5dbf7868-de0c-4e2f-88f4-2bd6d1136b8a,00692aeb-7281-4625-864a-be53e19cf1ae,2024-07-22 01:31:29,Eileen Henry,jeremycarroll@example.org,38,fly,person,10,55.57,553.68,553.68,South,2.02,94,Cash,Refunded,Cancelled,11.03,FedEx,32de1b3e-6ceb-4dac-9f58-327e0ff5be30,see,2.02,Leland,US,34.25628,-78.04471,"2721 Barbara Groves, New John, DE 39981","23635 Jennifer Valleys Apt. 075, North Alanshire, CA 80502"
bd585afd-97f1-4bda-a409-f97d51bfad41,fb61f261-b43e-4ed7-a796-8bcf7c6a250a,2024-02-09 15:28:40,Robin Butler,washingtonmichelle@example.org,82,drop,which,8,36.29,280.85,280.85,East,9.47,232,Cash,Refunded,Delivered,19.54,DHL,d206ced3-6f83-4d15-add7-ae9d551932dc,discussion,9.47,Brighton Beach,US,40.57788,-73.95958,"11909 Benjamin Stream Apt. 434, North Wendy, MD 40873","152 Davis Springs, New Thomasport, WY 36485"
bb1fc2e9-61f8-4476-8a78-e494ce6c23c5,5c3fcd4d-cf7f-4a83-acab-f35b2109e5e8,2024-01-14 03:40:05,Travis Jimenez,zlam@example.com,75,reveal,important,5,14.45,69.18,69.18,East,3.07,338,Credit Card,Unpaid,Pending,9.28,USPS,083826f6-fd56-4201-8209-37ff03771f6e,nice,3.07,Collinwood,US,41.55838,-81.56929,"9578 Laura Station, Juliemouth, NE 27857","43411 Howell Road, Theresachester, ND 02821"
2dd07a0e-93dc-4f32-a5cb-dd49e7ed44fb,7d849498-fe83-41c2-a336-00bb6fde3d85,2024-05-08 23:37:41,Dawn Sanders,kendrahunt@example.net,83,he,speech,10,66.01,656.42,656.42,East,3.68,104,Cash,Refunded,Delivered,8.4,UPS,14804c22-8b62-45ee-8a1f-a214fc8c0610,force,3.68,Iron River,US,46.09273,-88.64235,"24136 Wilson Village Apt. 958, Greentown, OK 90772","9467 West Walk, Taylorfort, ID 93156"
cc1816e7-3141-42fa-83dd-580e02e3f872,d34786db-e122-4098-8957-b0eaa3a93e8d,2024-06-13 07:59:33,Adam Page,josephdalton@example.com,46,cost,ever,7,50.42,344.12,344.12,West,8.82,77,PayPal,Refunded,Cancelled,7.15,USPS,b9407dc6-1f59-40ca-8aec-5759f60a5ea6,necessary,8.82,Sicklerville,US,39.71734,-74.96933,"2607 Blake Centers Apt. 436, Fergusonbury, NJ 11641","277 Guerra Junctions Suite 202, Holmesborough, CA 26036"
a7e087b6-7e4d-45bd-9d9f-d04dbc063bb4,ad1abb66-cdc8-46a1-8c2c-5b4b5879376d,2024-03-25 02:03:18,Daniel Patterson,virginiamartinez@example.net,99,month,adult,6,37.5,220.98,220.98,North,4.02,153,Debit Card,Unpaid,Delivered,13.33,DHL,f1e16da5-0d75-499f-920c-a2382fca381e,trade,4.02,Gainesville,US,29.65163,-82.32483,"6098 Little Village, West Dawnstad, OK 94038","315 Davis Ports, Cindyport, WI 83236"
222cf6a0-9e15-446c-b99c-2711f6c3563b,61d7c5cc-f6ff-4eff-8c99-e5f905e3be21,2024-01-05 13:29:55,John Mendoza,graceperez@example.net,49,north,model,7,34.9,235.43,235.43,North,8.87,442,Debit Card,Refunded,Delivered,16.19,DHL,b3b2b5f4-f4e5-40fb-a4b1-8a67f8e5eddf,read,8.87,Hutto,US,30.5427,-97.54667,"58652 Lopez Mill, Port Davidhaven, MS 36968","4945 Wilcox Street Apt. 399, Victoriaborough, AR 47163"
25585e18-15d6-480a-9538-8a48152c68d7,d9520b4a-a750-4127-9d27-7111631ae124,2024-01-19 15:13:41,Richard Young,robinsonkaren@example.net,24,provide,smile,1,84.26,75.49,75.49,West,8.77,481,Debit Card,Refunded,Cancelled,8.54,FedEx,966c7174-37f8-412a-a2bf-3ff989d9c7e3,tax,8.77,Lebanon,US,39.43534,-84.20299,"PSC 5490, Box 7411, APO AA 09045","6813 Allen Mills Apt. 788, East Shawnberg, CA 76925"
b242ff4c-ecfb-4a6b-b06e-3d18e35d401d,9a334b18-8bca-407b-a83e-6ed172873ad9,2024-01-16 15:26:44,Angela Rosales,tonipeterson@example.org,14,role,common,9,17.37,150.23,150.23,West,6.1,345,PayPal,Unpaid,Cancelled,17.18,UPS,6f542b31-412a-4041-9ec4-5821a21b8b9a,measure,6.1,Tupelo,US,34.25807,-88.70464,"USCGC Carr, FPO AA 77930","09926 Mullins Pines, Heidibury, AL 02779"
d49e252b-6746-4e7b-93e9-62d3618bb0f5,ed74e36a-59d3-4a56-a8eb-ff89ea92bc02,2024-05-04 11:39:41,Lindsay Turner,margaretmacias@example.org,61,fear,relationship,10,38.92,385.58,385.58,East,3.62,47,Cash,Refunded,Pending,12.62,FedEx,0aba7ae2-e5e4-46ab-abff-5288b2cc2fd5,state,3.62,Laguna Niguel,US,33.52253,-117.70755,"3290 Tracy Road Suite 837, West Bryan, NV 49604","2563 Diana Estates, Watsonland, AZ 57905"
fef67633-ce2c-4dd6-809a-612e63ec6eae,d84815cd-931b-4b99-9cdb-e02e09a6c54a,2024-01-21 18:05:53,Raymond Taylor,nicholegreen@example.net,81,month,bar,5,87.08,430.06,430.06,East,5.34,36,Debit Card,Unpaid,Shipped,6.09,FedEx,f76fa0cf-c155-41bb-acfd-1a6abcb83d3c,what,5.34,Tyler,US,32.35126,-95.30106,"544 Harris Plaza Suite 218, North Maryview, MD 39530","051 Glenn Turnpike, North Thomasfort, PA 21808"
4ca39586-b4ce-43d0-bfd8-96a2af82f3d7,193940b3-7df0-4c51-8570-02ca574e66f9,2024-05-15 14:23:11,Laura Holmes,lorinavarro@example.net,81,sort,think,4,74.18,289.28,289.28,East,7.44,30,Debit Card,Paid,Delivered,6.23,UPS,183606c1-9a83-4e84-8270-4171d3888c58,simply,7.44,Lower West Side,US,41.8542,-87.66561,"72639 Harper Mountain Suite 086, Matthewfort, NE 80599","90130 Huang Cove Apt. 795, Melissamouth, IN 68687"
37c74316-a7a3-4c3e-acc2-ba44ee1e125f,15a7a991-aea0-4b2e-b610-a7fd6ee79d5a,2024-06-18 13:34:16,Frank Campos,tthompson@example.net,73,choice,contain,1,13.88,8.25,8.25,North,5.63,244,PayPal,Paid,Shipped,7.44,UPS,457944a4-480f-4e63-86f4-73f7cfa20f44,computer,5.63,Scottsdale,US,33.50921,-111.89903,"60085 Brian Cliff, Donnafurt, NV 99385","826 Anderson Turnpike, Port Madelineborough, MP 05822"
994313f5-699e-4652-9490-66750110da23,e1ba4c4f-af3c-4d6d-8c94-4e72faba59d0,2024-08-03 15:52:01,Tammy Brown,holtlori@example.com,64,growth,ball,7,50.57,349.45,349.45,East,4.54,318,Debit Card,Paid,Cancelled,11.19,UPS,a2057fa3-d5bc-467f-9f36-ac122dcf965e,lay,4.54,Lino Lakes,US,45.16024,-93.08883,"866 Mays Path Apt. 911, Cookview, IN 90137","2667 Jaime Mill, East Tara, NH 50929"
6fbac316-c051-46a4-bd70-c4051cdf326b,a72a731d-b4e2-4d27-9c8d-3363d94fe74d,2024-07-30 00:33:02,Michael Watkins,kgibson@example.com,67,could,benefit,9,50.7,449.57,449.57,West,6.73,434,PayPal,Unpaid,Cancelled,11.89,FedEx,aaf15ba1-550b-4fee-9c84-eba6b812a09f,despite,6.73,Fairview Heights,US,38.58894,-89.99038,"75545 Cheryl Green, New Michelehaven, KY 56768","1591 Carter Shoals, West Hollybury, MD 79991"
e9bc1351-aa0c-4da4-a535-ea50c8c2648c,f976c81a-a5e1-463b-b9ee-68baf1d7a14f,2024-01-24 10:54:12,Christopher Montgomery,anthony55@example.net,88,behind,up,2,48.64,95.63,95.63,West,1.65,197,Credit Card,Paid,Delivered,8.18,FedEx,e0f18ae2-6beb-412f-9c2b-b8a7d599b5dd,include,1.65,Keene,US,42.93369,-72.27814,"3206 Torres Oval Suite 033, Kingbury, HI 42645","4147 Teresa Union, East Kelly, DC 02393"
6f638daf-f3c8-4aee-8b81-eaae4200df88,3935fc7a-ddef-498a-ae8d-39ed0109734a,2024-01-27 15:13:09,Shaun Walton,zhowe@example.com,30,speak,way,1,36.46,31.85,31.85,East,4.61,427,Credit Card,Paid,Shipped,6.26,UPS,31b3ca17-02c7-44f7-b36d-e8fc364806cd,identify,4.61,Massapequa,US,40.68066,-73.47429,"0898 Rose Loop, West Lance, MT 96718","00574 Barrett Summit, South Andreaburgh, AR 16236"
e9c16357-85de-4ec0-95e6-78751270ff14,9642af69-eb22-4237-9762-d2578e60d82a,2024-03-09 09:56:32,Hannah Cochran,wvasquez@example.org,76,minute,suddenly,8,38.34,301.12,301.12,West,5.6,215,Credit Card,Paid,Shipped,17.46,USPS,693a5639-7d46-4286-bc33-215ebf872f52,movement,5.6,Jersey City,US,40.72816,-74.07764,"7427 Michael Manors, Kristinside, SD 22171","27490 Dalton Turnpike, Joshuamouth, WA 14465"
4a6dd07a-7795-46ca-aebe-fb341163d35b,b8651b7a-77bc-40cc-a4a2-fba941df0a84,2024-03-07 23:52:18,Caitlin Glover,lisa04@example.com,21,determine,wish,10,61.79,609.52,609.52,North,8.38,165,Debit Card,Paid,Pending,19.8,UPS,3d93132e-3a24-405c-bbbd-3ba913beaef2,interesting,8.38,Troutdale,US,45.53929,-122.38731,"53233 Anthony Mews Suite 781, West Charles, NE 17665","1045 Stanley Glen, Chandlerland, FL 86913"
5569d597-3b33-4208-9ac1-2ebb0a904245,39aeec1c-4a67-44a9-92e0-f6c13bba60bb,2024-04-14 07:07:51,Nancy King,rodneykerr@example.org,46,attack,poor,1,29.45,20.81,20.81,South,8.64,280,Debit Card,Paid,Delivered,17.99,USPS,23756ca6-7cf6-466b-ae2b-65b8e7889d81,here,8.64,Kaukauna,US,44.27804,-88.27205,"399 Maria Stravenue, Nancyville, MT 05866","189 Chad Pine, Paulview, NC 73708"
60dededb-6164-49d0-a5e4-d1d59cb9ab4d,d1d44858-80b2-439d-b9f7-0acb155f9fbf,2024-01-02 08:36:09,Joseph Robinson,bmcdonald@example.com,19,walk,partner,10,33.99,336.57,336.57,South,3.33,41,Cash,Unpaid,Delivered,19.94,UPS,8f970583-1b01-4807-afac-7108412d7f76,hotel,3.33,Aurora,US,39.72943,-104.83192,"83282 Dominique Camp Suite 687, Mahoneyburgh, TX 70546","985 Alexander Mills Apt. 863, Port Williamville, NH 88995"
6623eaa6-9f29-4141-849b-4fbada122c8b,8782eff7-84ad-4e90-a750-1c1f3b3ad273,2024-07-28 14:10:45,David Ramos,pagekenneth@example.net,66,response,wear,6,44.6,259.33,259.33,East,8.27,500,Cash,Paid,Cancelled,18.16,USPS,3148477e-807f-4fa5-98ab-9a10934c4217,responsibility,8.27,Nutley,US,40.82232,-74.15987,"9146 Rollins Inlet Apt. 955, Bruceport, NE 35864","86162 Brandon Knolls Apt. 784, Patelbury, UT 40041"
1330392c-f71b-469a-9235-7de5ee19e0c0,528f6943-941f-4697-ac2e-692374dab38e,2024-06-19 11:38:36,Adam Gomez,dennisdiaz@example.org,8,however,lawyer,4,61.94,241.78,241.78,West,5.98,149,Credit Card,Unpaid,Shipped,14.79,DHL,6d94ee6f-945d-4426-a7eb-07990a3330d3,oil,5.98,Port Huron,US,42.97086,-82.42491,"77559 Hanson Rapids, South Andrewchester, ID 83791","USCGC Rios, FPO AA 42970"
2e3334f6-c500-4b92-98ce-99811c2361a6,49b26a8a-b689-4d8a-a1e4-2c2a16cd0e8f,2024-04-06 14:02:20,Mary Thomas,tami47@example.net,69,account,for,1,84.98,78.93,78.93,North,6.05,286,Cash,Refunded,Pending,9.97,UPS,72ad1603-f43b-4113-9a0d-79a53ad60460,environmental,6.05,Keene,US,42.93369,-72.27814,"42592 Payne Lodge, Andersonshire, FL 99071","73825 Briana Land, Kaitlinfurt, SD 21274"
b8a8bd91-e86b-4a2e-9092-1347eff2e864,97a99fd6-6629-44f0-bc2c-dd6a4cb8b3a8,2024-07-17 08:42:58,David Hurst,joseph82@example.com,34,box,recently,6,84.09,494.57,494.57,West,9.97,336,Cash,Unpaid,Delivered,15.58,UPS,b4c5f1e6-d057-433e-b7bc-e62903783ac3,mother,9.97,Venice,US,27.09978,-82.45426,"081 Michelle Place Suite 824, Williamsshire, MN 45438","24448 Howard Square, Baileyport, GU 05313"
bc056be9-9342-4c45-acdb-97de93657dc4,5df87250-4f5b-4551-9584-19951a189004,2024-06-23 17:17:28,Shannon Williams,robert96@example.org,39,strong,and,2,71.63,135.52,135.52,West,7.74,112,Cash,Paid,Shipped,20.0,USPS,f7515468-00d5-473e-83c0-5b28aac3598f,enter,7.74,Waterbury,US,41.55815,-73.0515,"53564 Wyatt Drive Suite 530, New Julie, AK 83180","832 Anderson Park Suite 206, Lake Christopherview, UT 54473"
c8e74537-87c8-4d80-b9d9-a0fff369d24d,56df299d-779b-4002-ab2a-36dc658ecd37,2024-07-03 15:58:30,William Clark,destiny57@example.org,63,color,Democrat,5,47.73,233.89,233.89,North,4.76,207,PayPal,Refunded,Shipped,5.7,FedEx,3c9ba5dd-bf37-40c2-a6d6-4096acef786c,too,4.76,South Whittier,US,33.95015,-118.03917,"7201 Reynolds Circle, Blakeland, NH 91316","USNV Thomas, FPO AE 08532"
ce527c06-1ca1-4695-86bf-86ce0013d650,82db24d2-b999-40df-893d-1dd6c52e1c49,2024-03-24 16:00:44,Ryan Ashley,hmcclain@example.org,17,want,hit,5,29.26,139.82,139.82,West,6.48,23,Cash,Unpaid,Cancelled,17.64,USPS,6c26ce2a-65b8-417b-bf74-870a1cebd6a3,clearly,6.48,Abilene,US,32.44874,-99.73314,"3925 Stein Squares Apt. 998, West Connorstad, NC 72714","4895 Samantha Village Apt. 188, Port Deborahfurt, AK 60234"
04896177-1b91-4ea6-9a2f-5b79524c6759,5bb3bc15-a73f-4b3c-8f73-5685996f9f3b,2024-04-20 17:28:15,Heather Smith DVM,xmorgan@example.net,56,item,fly,8,10.72,77.35,77.35,South,8.41,344,Cash,Refunded,Delivered,6.67,FedEx,4766bdfe-2e12-4b0d-a448-5256d8f72c1b,field,8.41,Mechanicsville,US,37.60876,-77.37331,"243 Rhonda Walks, Tiffanyview, SD 15745","301 Bowen Shore Suite 811, Port Kristina, FL 93418"
3e10c71d-b9ce-48df-acc5-cb428deb174e,60d4057b-d8c9-4e8e-967f-388886a5ae1a,2024-01-04 17:13:05,Lynn Taylor,srojas@example.org,37,who,truth,1,38.7,38.26,38.26,North,0.44,448,Debit Card,Paid,Pending,15.34,FedEx,17e0c4ea-0808-43e2-b681-99bc1f7d3ffa,child,0.44,Kent,US,47.38093,-122.23484,"31048 Joseph Mount, Lake Carolynchester, NY 19264","248 Grimes Haven, North Robertmouth, DE 69174"
b035c3f0-231e-46c4-90ec-49fddae8b44d,3fa26117-dbfd-4f22-8979-2b2e09e16759,2024-05-04 12:05:07,Morgan Peterson,tblackwell@example.net,50,plan,young,6,20.32,116.16,116.16,North,5.76,420,Credit Card,Unpaid,Delivered,18.14,UPS,e5fca58f-791d-47af-ae3f-ef238c7cd7f8,surface,5.76,Mechanicsville,US,37.60876,-77.37331,"72143 Patricia Springs, New Amandaland, VA 83843","6844 Silva Burg Apt. 670, Port Amberhaven, OR 32047"
f1ab6210-58eb-48e8-af93-847d45f426a9,1cf18156-6a1b-477c-8be3-69b9b49a3275,2024-01-19 19:27:46,Sara Poole,heather73@example.com,19,away,expert,6,49.36,289.9,289.9,South,6.26,376,PayPal,Refunded,Delivered,16.57,USPS,52aeef32-5e90-4e42-83a5-8560194fa82d,suffer,6.26,Tyler,US,32.35126,-95.30106,"08808 Guzman Circles Suite 689, Angelaton, TN 55073","8889 Jennifer Mission Suite 148, Jamesside, AK 95942"
80de258b-b23e-4ca7-af7e-8329aacc55ae,374355b2-c573-4be4-a726-816be9905f51,2024-05-19 04:04:50,Angela Harmon,arthur19@example.net,14,not,window,5,46.03,226.91,226.91,South,3.24,324,Cash,Refunded,Cancelled,8.59,UPS,9dbf5ad9-ee65-42bd-ac60-8beeb439161d,just,3.24,Pottstown,US,40.24537,-75.64963,"52112 Anthony Crossroad, Muellerchester, CT 53343","2372 Jimmy Villages, Monicafort, MP 20625"
629460fc-25c4-4f1c-8a90-cea0e49dd213,5549a28f-3543-40fa-8734-8025a2279a27,2024-06-22 15:54:38,Antonio Mclaughlin,jasminecastillo@example.org,51,these,water,1,67.59,66.82,66.82,West,0.77,475,Debit Card,Paid,Delivered,10.73,DHL,c225d452-2ade-4db5-81b1-e7919a123fad,coach,0.77,Evergreen Park,US,41.72059,-87.70172,"08185 Wayne Stream, Johnside, TX 89732","9309 Bryan Curve, Port Benjaminmouth, FM 94431"
736d0e04-b124-46a5-b43a-ee2d654e48f5,7ccb8af2-9910-4225-a4b3-24474ee6a3cb,2024-02-17 15:02:23,Edward Fischer,alanlopez@example.org,68,place,into,10,61.26,611.09,611.09,South,1.51,347,PayPal,Refunded,Cancelled,11.8,FedEx,a7560c15-ef27-4152-ae78-d2b4942db9c6,certain,1.51,Ken Caryl,US,39.57582,-105.11221,"7733 Nathan Summit Suite 377, West Ambermouth, IN 88806","409 Tricia Islands Suite 054, Taylorborough, WI 72507"
2dd5b2eb-5faf-4149-8939-6fc58f7b781a,10f43114-f5c2-4a34-ac3b-166a661d2ae8,2024-01-18 23:52:58,John Wilcox DDS,patrick50@example.org,45,wall,agreement,3,77.82,228.2,228.2,West,5.26,241,PayPal,Paid,Cancelled,9.18,UPS,235c070e-0b4c-4928-a1cd-cccac52c2587,society,5.26,Venice,US,27.09978,-82.45426,"321 Townsend Mall, Robinburgh, MA 58949","PSC 4492, Box 7840, APO AE 46880"
dbc929a5-1694-43b6-a66d-4c53a9767640,07436e1d-9111-4fc8-9deb-f6d63e5e052a,2024-06-17 12:40:29,Vanessa Dean,jasonjimenez@example.net,18,so,recent,4,11.37,37.12,37.12,East,8.36,400,PayPal,Unpaid,Shipped,7.88,DHL,c25db68c-5aa6-40ba-a357-06dcc54a6af6,blood,8.36,Aloha,US,45.49428,-122.86705,"3868 Dwayne Centers, North Martinmouth, SC 08271","17994 Mcguire Forges, Brittanyburgh, WY 97348"
3b0402d6-d914-4231-b2b3-82569b73e947,88745ee2-fe54-4e14-86fb-691e9de0b142,2024-02-16 12:37:28,Christine Jackson,debra84@example.com,2,project,hair,6,46.62,270.77,270.77,West,8.95,209,Credit Card,Paid,Shipped,8.73,UPS,9626c93b-5d81-45c4-bb71-8d87eb269941,hope,8.95,Lompoc,US,34.63915,-120.45794,"Unit 7725 Box 8247, DPO AE 81840","PSC 2343, Box 6568, APO AE 68705"
6a698e81-48a4-46e0-a922-f35edd2e9273,790003a4-2424-4136-b2e3-04d734072847,2024-07-01 03:31:17,Jerry Payne,pterry@example.org,49,will,order,7,84.67,591.42,591.42,West,1.27,457,PayPal,Paid,Pending,11.66,UPS,14ed1c05-533d-48d8-8ab0-c50c98b00dc3,military,1.27,Mira Mesa,US,32.9156,-117.14392,"0178 James Lights Apt. 690, Melanietown, MP 60315","7977 Tiffany Way Apt. 496, Elizabethshire, PW 78360"
3b1b6589-a8e0-4d1c-a6cc-28057ffa2fce,674368ad-6225-4ce5-823a-0fb28eeb69cc,2024-03-26 01:06:45,James Green,rmendez@example.org,15,any,leg,4,42.64,165.81,165.81,East,4.75,64,PayPal,Unpaid,Delivered,17.27,FedEx,c6829a82-9a49-4e72-ab59-edc79ce93e5c,close,4.75,Ken Caryl,US,39.57582,-105.11221,"9152 Thomas Trail, New Tonishire, NV 89539","4910 Torres Village, South Connie, NH 27204"
572e77ea-98be-41f3-b120-1c8ef90538be,74c56795-de26-45d8-a627-d482a2e8b01d,2024-04-18 15:29:39,Isaiah Smith,aaron86@example.net,13,star,improve,7,95.65,665.53,665.53,North,4.02,359,Cash,Unpaid,Shipped,18.43,FedEx,61a78c0c-980b-4167-a94c-00a02e7ed2ab,health,4.02,Taunton,US,41.9001,-71.08977,"9007 Lori Row Apt. 334, West Devin, FL 89364","8601 Woods Throughway, Thompsonland, KY 32998"
1d895f97-bfa4-461e-98bd-c5be1d8b365d,86efbc83-eadd-4d2d-9048-a6efc2bcbe74,2024-03-26 02:10:56,Nicholas Bryan,jacob10@example.net,9,among,weight,4,56.98,218.0,218.0,West,9.92,462,Credit Card,Unpaid,Delivered,15.32,FedEx,30d58ddb-05c4-42b6-9d27-f20ff246d9d0,without,9.92,Abilene,US,32.44874,-99.73314,"1866 Stevens Wall Apt. 356, Bennettbury, WA 69887","5509 Tyler Crest Suite 189, Andersonville, OR 69703"
72a358db-1c5d-46ff-b960-11e4ca9d4914,3199cb64-dca2-4e59-b456-a4af22d306b2,2024-07-13 03:11:41,Valerie Barron,xmathis@example.com,54,white,arrive,4,71.18,276.51,276.51,South,8.21,174,Credit Card,Refunded,Pending,6.54,FedEx,5bce9173-9c41-4d6f-89ee-bb635ec94ac2,social,8.21,Palm Valley,US,30.17746,-81.38758,"5079 Shane Camp, South Alanmouth, NC 39274","533 Chen Crescent, West Debratown, VI 05696"
8c105852-3a88-4f39-a6d5-420c1944eb68,8af57d89-ba54-40c8-8be6-53249b577c9a,2024-02-12 20:53:51,Allen Spears,dianabrown@example.com,21,perform,kind,9,30.13,264.13,264.13,East,7.04,227,Debit Card,Unpaid,Shipped,11.83,USPS,dc7d11f8-9d1f-4079-b677-249fbce56046,majority,7.04,Tyler,US,32.35126,-95.30106,"7303 Lisa Points, New Kathleen, SD 17095","25106 Kyle Street, Johnmouth, SD 17689"
b069843d-9f2b-446e-ba4e-dd923a33e56d,2bc8cb2e-6083-4ea0-ae38-19566bda246c,2024-01-14 21:00:30,Denise Davis,jennifer29@example.com,48,to,team,3,67.98,202.67,202.67,North,1.27,492,PayPal,Refunded,Shipped,19.84,UPS,5c0368ea-a0ef-48ff-aabf-d1d5f4303264,hundred,1.27,Milledgeville,US,33.08014,-83.2321,"6645 Harvey Alley Apt. 911, Brandonberg, NC 74336","00524 Hayes Center Apt. 215, Langview, NH 16744"
cae57708-6b6a-4357-bc6a-175798c9c991,b6cfb156-b688-4754-bdd7-36966e54c872,2024-01-12 21:37:13,James Banks,daniel51@example.com,42,pick,few,3,69.22,200.52,200.52,West,7.14,109,Cash,Unpaid,Delivered,13.44,FedEx,f81533a6-011d-413f-82af-e869aeef05ff,word,7.14,Brenham,US,30.16688,-96.39774,"4062 Alexa Hill Suite 695, South Nancy, NJ 22643","8214 Colleen Parkways, Millerport, OH 53077"
d628d300-4fc5-40be-bcdd-c08ddcbb6611,92377470-d14e-4a6d-8f76-6baabcecea74,2024-04-24 20:54:40,Don Turner,ssolomon@example.net,5,design,true,7,93.23,649.79,649.79,East,2.82,68,PayPal,Unpaid,Pending,17.35,USPS,da34488e-b765-4566-99bf-725687db728c,reflect,2.82,Gilbert,US,33.35283,-111.78903,"06946 Dunlap Extension Apt. 962, Lake Frankmouth, IN 69608","5623 Michele Vista, Port Michaelshire, MP 48386"
520a1fea-9af8-4ece-8aac-55a5f025e310,f973040d-690f-420c-8d78-68c08f3febfb,2024-04-13 11:59:46,Suzanne Snow,fluna@example.net,5,live,none,7,84.39,586.51,586.51,South,4.22,334,Cash,Unpaid,Delivered,13.7,DHL,e49b9f7d-406a-42fd-a554-e3d7afe72d2a,stuff,4.22,Mechanicsville,US,37.60876,-77.37331,"USNS Norris, FPO AA 39267","19514 John Ports, Jenniferborough, SC 48549"
db7bece4-0723-4546-b850-5b69654074e7,ffdc8d35-9a9b-46fc-b294-3498ce36bc5a,2024-05-10 00:16:02,Ronnie Valdez,perezjohn@example.org,72,film,film,9,22.71,201.96,201.96,East,2.43,283,Debit Card,Unpaid,Cancelled,15.67,DHL,42489da3-07eb-4a54-b81c-f0ee30ff3635,foreign,2.43,Rosemount,US,44.73941,-93.12577,"883 Gilbert Square, Hodgesland, MH 44580","USNS Anderson, FPO AA 50729"
ade104f1-43b8-4634-b2b5-8dff2b83528a,55ff5d02-0ebe-4674-a024-0040e0f218c4,2024-03-12 08:58:12,Caitlin Quinn,crystal37@example.com,38,member,page,1,18.02,8.68,8.68,West,9.34,281,Debit Card,Refunded,Pending,8.14,FedEx,4d590138-6d48-48cf-a9e7-fb5a0de25377,wish,9.34,Palestine,US,31.76212,-95.63079,"20446 Gail Causeway, North Tina, MN 92397","231 Denise Junction Suite 463, Wilsonland, CO 75817"
5f5648d0-117e-41b5-ad3e-8b32e943cf97,d5896911-c8a0-40c7-a3ce-c05429f5a442,2024-05-03 04:44:30,Kathryn Weeks,deborahmaxwell@example.org,52,grow,manage,5,36.0,176.81,176.81,East,3.19,405,Credit Card,Unpaid,Shipped,14.97,USPS,493d7dd5-a7d7-4983-bf6e-ead8b0aabef6,remember,3.19,Front Royal,US,38.91817,-78.19444,"86387 James Causeway, Michaelfort, MN 77830","Unit 6972 Box 5032, DPO AP 79847"
f7aec2d9-e161-4939-beca-d23bc2012e0d,74da294e-eb23-4333-9561-4bd255c6c80e,2024-06-30 02:55:59,Kim Brown,krista67@example.org,51,attention,land,1,90.96,89.93,89.93,West,1.03,173,Credit Card,Unpaid,Pending,6.97,USPS,9e03a096-d60a-41e6-bc1a-16c3cac09eb7,letter,1.03,Troutdale,US,45.53929,-122.38731,"32624 Bethany Squares Suite 010, Myersmouth, GA 85166","025 Rogers Grove Apt. 553, Rebeccabury, WA 54749"
7a693191-f915-4896-885e-9496a3590b7c,9f1fc005-cbe0-4c36-9008-c1d3005c2317,2024-01-03 18:04:38,Kevin Matthews,kristin25@example.net,74,picture,sing,2,25.74,47.29,47.29,North,4.19,10,PayPal,Unpaid,Cancelled,15.98,UPS,1ab3fd10-86bc-4785-8b96-1ab90d6153a2,as,4.19,Encinitas,US,33.03699,-117.29198,"994 Robert Curve Suite 544, Orrport, WV 42509","741 Powell Throughway, South Nancy, MN 49741"
20dc9908-5c42-458f-baec-5f6aae5058ea,d0bacc5f-dd34-4161-8483-bebe0f4a96eb,2024-01-02 07:03:54,Cindy Hall,aliciagonzalez@example.net,43,effect,argue,6,19.77,112.87,112.87,East,5.75,252,Debit Card,Refunded,Pending,7.19,DHL,b7a5746f-4948-47ff-a247-a5743f155f5e,raise,5.75,Keene,US,42.93369,-72.27814,"078 Heather Route, Ricechester, NY 90253","USNS Finley, FPO AA 82339"
f10c748f-478f-4dfe-9463-4358ffb2a16d,5ffc8f2f-6350-42e3-9c6a-97b7755b4de4,2024-01-21 22:47:00,Michele Nash,waterseugene@example.org,89,travel,brother,4,75.92,295.48,295.48,East,8.2,328,Credit Card,Refunded,Cancelled,14.37,FedEx,ef34a872-e8da-4dad-8699-41558b61c88f,it,8.2,Searcy,US,35.25064,-91.73625,"Unit 8296 Box 6231, DPO AE 97461","32620 Simpson Throughway Apt. 498, Harrisland, CT 04584"
c2e31e45-341d-4daf-8108-3eb0d1727bec,01555385-64f2-4091-9387-a3460d89cfdc,2024-01-16 13:30:54,Caleb Harrington,robert96@example.org,45,fall,shoulder,10,97.39,966.88,966.88,East,7.02,35,Cash,Refunded,Pending,5.02,UPS,04c60b31-a065-459e-8dac-4b618f54a06c,tonight,7.02,Kaukauna,US,44.27804,-88.27205,"USS Robinson, FPO AP 35583","USNV Fleming, FPO AP 74402"
5ed7f48b-539d-4732-b71e-2bddc5f81ba9,c38a7d14-2720-4faf-bc0d-b4f203836ca1,2024-07-19 09:11:22,Jesse Thornton,james61@example.org,23,growth,within,5,51.72,251.52,251.52,West,7.08,60,Credit Card,Unpaid,Cancelled,8.59,DHL,e238d715-fb5a-4bb8-b185-70378a36d14c,seek,7.08,Waverly,US,42.7392,-84.62081,"74034 Williams Fork, Port Michaelstad, GA 83153","8473 Zachary Wells, Port Shannonburgh, AR 15953"
c81d4dbe-a92e-450b-a656-a7bf4c8c46a5,85cca20c-779f-4d7b-818c-d727602346a3,2024-04-11 04:36:06,Cheryl Daniel,nstone@example.net,2,east,candidate,2,32.47,59.12,59.12,East,5.82,439,Credit Card,Paid,Delivered,17.21,UPS,959ec5b8-2884-4e75-80e4-d76279dce660,himself,5.82,Utica,US,43.1009,-75.23266,"0753 Thomas Tunnel Apt. 002, East Elizabethborough, NV 79574","5562 Walker Springs Apt. 750, West Angelamouth, MH 45991"
3bc3c4da-55a6-4ca2-a05c-984b76e5c12f,5ebdd8ac-39fe-4919-ad14-ac60841fc388,2024-07-31 06:55:21,Elizabeth Mejia,rstokes@example.com,60,dream,drop,1,25.9,22.78,22.78,West,3.12,393,Cash,Paid,Delivered,7.26,DHL,c98d5bf3-d549-4068-aa71-189ad3d4fa8a,plant,3.12,Kent,US,47.38093,-122.23484,"0483 Tanya Common Suite 802, Lake Tomview, GA 83710","USCGC Carter, FPO AE 01416"
023151c9-ccdd-44b0-ac94-aec1b7121dc4,cbe3643a-eeda-4e84-bc8a-c410d5e8ea60,2024-04-05 14:36:58,Samuel Galvan,hernandezlaura@example.org,44,research,south,6,54.94,324.62,324.62,South,5.02,373,Credit Card,Refunded,Pending,15.16,USPS,4d1f199c-a3ac-4bd1-b314-af8df9143928,religious,5.02,Venice,US,27.09978,-82.45426,"4086 Daniel Circle Apt. 837, Martinezfort, UT 51150","Unit 0121 Box 7500, DPO AP 99065"
cc84b8e3-78dc-4211-8152-fae83ddb05ec,8f37d725-afc8-4a08-a821-6e6a0e0b5517,2024-01-02 14:35:21,Kelly Kline,igutierrez@example.com,19,test,ready,6,10.61,55.38,55.38,South,8.28,280,Debit Card,Paid,Delivered,12.21,UPS,7c663e59-d3ed-4fdf-9d76-752fd8aeb0e1,president,8.28,Saratoga Springs,US,40.34912,-111.90466,"64324 Green Shoals Suite 844, Williamschester, IN 57382","7133 Jane Locks, Port Charles, MT 07697"
feb00a9a-9d34-4462-9cfe-d378d611416d,1d23c170-a5f1-4e13-bc3f-cb2d6b18b88b,2024-04-18 12:31:05,Monica Dougherty,jamienicholson@example.org,85,want,late,3,68.15,200.07,200.07,South,4.38,81,Debit Card,Unpaid,Shipped,14.91,DHL,1cfc2504-bdf4-4618-ada9-01f2d1d2d25b,cold,4.38,Watsonville,US,36.91023,-121.75689,"6420 Margaret Inlet Suite 543, North John, FM 36220","966 Aguilar Flat, South Gina, AL 45616"
42b64ce4-5911-4813-8f4e-7208f354e58e,43e5f5d1-482b-4117-af8e-1e1076689630,2024-07-18 18:11:01,Jeffrey Blair,caldwellmatthew@example.com,44,inside,there,7,83.29,581.41,581.41,East,1.62,53,Credit Card,Unpaid,Shipped,9.1,USPS,01bf6ce6-be07-4b5a-b851-d3978b988857,interest,1.62,Norwalk,US,41.24255,-82.61573,"76423 Chase Overpass Suite 904, New Thomasmouth, MH 42669","083 Andrews Mews, Port Sabrina, GU 16132"
0aa4e7d2-2a56-451b-816c-bbc018bf417d,f4462589-b40a-44c4-a4ec-85389091dd50,2024-08-02 21:55:00,Melissa Juarez,jasmine64@example.net,94,reflect,sort,9,19.37,171.65,171.65,West,2.68,85,Debit Card,Refunded,Shipped,7.86,FedEx,4224c86a-305b-4ac1-829a-2c916383ae56,see,2.68,Gates-North Gates,US,43.16547,-77.70066,"1360 Stewart Walks Apt. 092, Russellfurt, WV 19677","54396 Nixon Wall Suite 629, Anthonyfurt, NE 35132"
8fd2f2dc-4806-459e-94c7-a490860a002f,53860bab-fefd-4b25-8109-bdac1594323d,2024-05-02 15:50:36,Michael Martin,gardnervictoria@example.net,35,society,like,7,73.48,513.49,513.49,West,0.87,188,Credit Card,Unpaid,Cancelled,13.82,USPS,65ba8503-596c-454b-8286-c9c8d0f68643,girl,0.87,Cypress Hills,US,40.67705,-73.89125,"30934 Laura Loaf, West Johnmouth, MH 57718","51423 Luis Walk Apt. 207, Gardnerbury, NM 32282"
ab39a39d-8113-4750-9d3a-2856fe4a36ba,3864dcd0-40f8-4dbe-9d4d-7e1f2887fdc6,2024-01-05 08:13:34,Faith Hernandez,hwilliams@example.com,81,any,close,5,23.49,113.57,113.57,West,3.88,248,Credit Card,Refunded,Shipped,16.54,UPS,83778cc2-cf74-409f-94de-2eb0a76294f7,wonder,3.88,Lebanon,US,39.43534,-84.20299,"784 Robinson Brook Apt. 583, Christybury, OH 92722","38980 Jones Cape Suite 992, East Hayleyburgh, MS 70662"
9a9b8fd1-dd28-4a71-98c7-dc1c20484e49,ab68e294-c365-4730-a241-8c2710b794ab,2024-06-30 16:05:05,John Noble,terriwhite@example.net,59,whom,pick,3,92.45,276.01,276.01,North,1.34,252,Credit Card,Paid,Cancelled,8.89,DHL,292a8820-16e1-4947-9baa-11ab5b9d445e,again,1.34,Sterling,US,39.00622,-77.4286,"4915 Clark Junctions, Lorihaven, VT 96195","125 Mary Via, Patriciaville, ND 01770"
e244528e-ea63-4b20-bd76-f68915c9d789,db3142d0-f1bc-4562-b01c-5f6ead8e4355,2024-04-03 03:48:08,Robin Gomez,wheelererica@example.org,13,federal,party,10,71.48,707.93,707.93,East,6.87,377,Cash,Refunded,Pending,19.74,FedEx,11734402-3fed-4d72-88d9-090f10ac8a87,grow,6.87,Norco,US,33.93113,-117.54866,"832 Joseph Burgs, Hollandside, OH 70433","170 Jackson Tunnel, Lake Jason, MP 77670"
d34165e5-d72f-445b-8f3a-b7422625fc95,f39c37ac-fa68-488c-9bea-67ca3d76ac4d,2024-06-11 14:13:54,Melissa Smith,kimberly92@example.com,86,talk,of,3,41.38,115.45,115.45,West,8.69,273,PayPal,Refunded,Delivered,6.45,UPS,c43d586a-743f-4709-ad16-98897fa5dc7e,point,8.69,Rosemount,US,44.73941,-93.12577,"265 Tyrone Gardens, Dickersonfurt, KY 54812","46741 Perez Spring, North Suzanneburgh, NE 17894"
f2805b14-607b-4a60-820f-272fb6ed4633,770d86a6-7142-4d3f-8bab-ee1c8c68bc4b,2024-07-01 22:21:31,Christina Shaffer,emilyhale@example.org,45,man,race,3,75.69,226.43,226.43,West,0.64,378,Debit Card,Refunded,Pending,7.56,UPS,38d769ea-5452-4a75-b530-101c9854da91,here,0.64,Clermont,US,28.54944,-81.77285,"9918 Cassandra Lodge, New Benjaminton, WA 69747","PSC 4386, Box 0508, APO AE 64720"
cf045ca5-a6b9-490a-9691-ce3a8a69bc33,f9d053de-29dc-4e04-8d79-d652ad46b69e,2024-05-19 13:21:09,Stephanie Williams,wrightjoe@example.net,41,its,school,4,15.88,60.11,60.11,South,3.41,439,PayPal,Refunded,Pending,7.22,DHL,c4797001-fcd8-4fa9-be7b-fd4f47cb520a,live,3.41,Sicklerville,US,39.71734,-74.96933,"138 Brown Fords, West Jessica, PA 44628","0097 Christopher Trafficway Apt. 899, South Adamfort, CA 57786"
14a57299-a579-4431-8a6c-129e336859f1,1ecdc73a-85f5-47cd-8fbc-d26c041b7531,2024-07-30 16:01:26,Jeffrey Edwards,blawson@example.com,94,participant,fact,3,24.21,66.83,66.83,East,5.8,475,Cash,Unpaid,Cancelled,9.86,DHL,9554c57c-9335-4daa-bcf5-ee469493d6dd,enjoy,5.8,Schererville,US,41.47892,-87.45476,"848 Gordon Throughway Suite 682, Jessicatown, WV 10787","468 Wood Isle Suite 833, Port Wanda, FM 53696"
244cf943-d3b8-43d6-b16c-d1cfe0cf65a7,dab29d51-71d1-4faa-83ed-4e4e38502321,2024-05-12 01:27:19,Jasmine Hayes,annapatterson@example.com,21,project,arm,6,68.28,408.82,408.82,East,0.86,152,Debit Card,Unpaid,Shipped,6.16,FedEx,e0b3252a-67e2-4606-b0e4-8d371cbb5e26,such,0.86,South Whittier,US,33.95015,-118.03917,"0915 Bonnie Land, West Victoria, UT 59776","884 Darryl Isle Suite 743, Gibbsberg, RI 57264"
971a1526-15ee-481b-8e8a-7ada185d4037,26a1e8a6-7b86-41e4-b0b8-36585e7dbe11,2024-04-27 09:13:46,Dakota Thompson,hoganjessica@example.org,37,especially,myself,3,44.9,133.14,133.14,North,1.56,80,Debit Card,Refunded,Cancelled,12.35,FedEx,5ff177ac-c1af-416a-a529-c4a0194ec0da,risk,1.56,East Haven,US,41.27621,-72.86843,"PSC 5050, Box 4552, APO AP 21762","USNV Miller, FPO AE 39402"
adc450ff-96d6-4518-9651-00abb7f8a627,e38f8d07-0246-4dd2-b986-5dda248ba395,2024-06-01 00:07:40,Keith Wallace,amandaperez@example.net,70,recently,debate,8,11.86,86.52,86.52,South,8.36,40,Cash,Paid,Delivered,12.03,FedEx,96853d5c-fe97-438c-bfb3-f93368cf345e,candidate,8.36,Tyler,US,32.35126,-95.30106,"88047 Howard Route Apt. 700, Teresashire, KY 44880","35011 Graves Lock, Lake Rebecca, MI 90729"
9cacf0d5-7047-426d-8b8f-7917f9955265,6cb70f3f-b500-46b9-b8a9-9feda95effc1,2024-05-30 05:14:22,Vickie Walker,wilsonbrett@example.net,15,back,model,9,93.59,838.36,838.36,South,3.95,229,Debit Card,Refunded,Pending,18.11,DHL,e5a2764a-5ba3-45d8-9516-e111b7124572,bill,3.95,Lino Lakes,US,45.16024,-93.08883,"41259 Graham Ford, Port Thomas, SC 47498","97331 Sean Springs, Ericmouth, OR 42257"
0e8728ca-27f3-4626-8c1e-bc79a0840ed4,bb51f8a9-faa9-4233-b724-270956867680,2024-07-05 08:55:55,Alexander Cannon,brandon75@example.com,39,picture,action,2,15.98,24.7,24.7,North,7.26,199,Debit Card,Paid,Shipped,11.56,FedEx,35584a38-354a-44d0-a7aa-78fa0695a1bd,Congress,7.26,Camarillo,US,34.21639,-119.0376,"20221 Michael Gardens, North Austin, AK 93286","778 Bates Estate Suite 012, East Anne, PA 17427"
9f3e4d6d-5cac-4dc8-81fb-28aea3e6dc11,9b598877-1527-4891-a3d3-363b3aeae7d6,2024-03-08 00:01:39,Justin Perez,vross@example.org,37,enjoy,form,2,48.74,88.86,88.86,North,8.62,285,PayPal,Paid,Cancelled,18.49,FedEx,dbd87ff1-7666-4011-a10d-39d3690997ea,source,8.62,Greenfield,US,39.78504,-85.76942,"318 Poole Ways Apt. 606, Greenshire, OK 00609","48625 Eric Coves Apt. 565, Laurenview, PW 19060"
562cb75e-c5f0-4277-8342-beb5a4409145,1bd5043c-4c2c-4ac7-8f19-fcf1f02d9f0d,2024-05-20 03:14:28,Lisa Jones,devinwilliams@example.com,79,how,thing,10,14.5,139.72,139.72,South,5.28,67,Cash,Paid,Cancelled,11.34,FedEx,390ab9af-8257-49a3-89b7-41ea70db56c4,top,5.28,West Chester,US,39.96097,-75.60804,"952 Martinez Ports, Solishaven, IN 37784","2413 Zamora Mountains, East Tiffany, TN 45287"
088e1864-fd35-437f-96c8-2defaeeaaaf0,ea525e07-c621-4d16-93c2-2e46d9f0dc25,2024-05-19 00:52:47,Jacob Armstrong,gvaldez@example.net,36,tax,personal,6,31.55,182.4,182.4,West,6.9,228,Credit Card,Paid,Delivered,19.32,FedEx,41c9a231-410d-492f-9d52-1f05813bc605,tax,6.9,Acworth,US,34.06635,-84.67837,"77943 Davis Junction, South Tiffany, WY 30281","8806 Robert Vista Apt. 470, South Erika, WY 36689"
29a7e32b-bcd5-47a8-ac8c-cf9c261a0dd3,199035b3-1ff7-408a-8a7c-f1adc4f2edc2,2024-04-28 05:17:02,Patrick Lewis,sandra97@example.org,7,pay,here,5,98.37,490.74,490.74,South,1.11,251,Credit Card,Paid,Pending,19.11,FedEx,2d4f2b98-cea1-47a2-9f55-a9225a61426c,among,1.11,Scottsdale,US,33.50921,-111.89903,"6641 Jane Road, Glennbury, CT 68731","72299 Michael Ports Suite 282, Schneiderton, WY 65574"
54714a05-bfa6-4936-9cf6-5a48aabee359,2727e0e5-a6e1-4c2b-a7b5-72bfd893f503,2024-03-08 14:26:30,Mrs. Shelby Greene,john34@example.net,85,final,house,8,14.59,116.02,116.02,South,0.7,119,PayPal,Paid,Cancelled,17.43,UPS,7b264b01-474d-406a-a12b-8907b7f8f53f,compare,0.7,Bourbonnais,US,41.15376,-87.88754,"4821 Brown Turnpike, Lake Briannaland, NE 62425","7141 Shawn Track Suite 152, Benitezside, MT 15047"
8b01079b-2bb5-4106-b506-ee40f5681e21,70fed904-a961-4386-83dc-eaf8d5b4215e,2024-01-24 06:58:20,Cody Wright,megan62@example.com,93,reason,necessary,7,86.84,602.07,602.07,West,5.81,348,Cash,Unpaid,Pending,19.01,UPS,0d848087-f8f2-4e41-969b-89123e82f270,chair,5.81,Palestine,US,31.76212,-95.63079,"99557 Nelson Fort Apt. 004, New Justin, MO 59766","6912 Bryant Heights Apt. 716, South Michael, OR 26438"
f31181b1-d892-4fa3-b963-927c7b2f11f0,1f34f65e-fef2-40fa-9e18-3a299dfc9e63,2024-06-12 12:45:04,Jon Dyer,deanmurphy@example.org,27,also,raise,10,66.78,664.9,664.9,East,2.9,442,PayPal,Paid,Pending,6.81,UPS,113bfc01-2531-42c9-99f6-9104cbc5ca92,serious,2.9,Lompoc,US,34.63915,-120.45794,"98268 Kristina Hollow, Orrmouth, MO 81446","4745 Delgado Rue Apt. 312, Sarahberg, NC 06707"
c2770bd0-a56d-4a14-8ffd-c15c82fc76de,92ff4d12-e620-47f6-916f-db017d567603,2024-05-11 00:55:59,Shawna Smith,brownrichard@example.net,99,step,baby,5,12.01,59.48,59.48,North,0.57,53,PayPal,Refunded,Pending,15.4,FedEx,69ac6180-8c2a-4e29-8f42-2ebad352a472,every,0.57,San Gabriel,US,34.09611,-118.10583,"880 Lee Creek Apt. 897, Conleymouth, DC 73107","364 Roberta Plaza, South Brianfurt, OK 59328"
6719bf1c-6844-40b4-9496-e6819ef8624d,88cf1811-74a7-47a1-8c02-05cd034f13e1,2024-03-10 02:23:23,Sarah Johnson,wboyd@example.com,12,more,medical,8,37.52,296.79,296.79,East,3.37,396,Cash,Refunded,Pending,17.55,USPS,2f9bb8a6-22e4-454b-bbb9-dc9fa9a7ace8,yet,3.37,Martinsburg,US,39.45621,-77.96389,"2126 Stephanie Trace Apt. 142, East Tracy, AK 21260","92522 Freeman Mount Apt. 085, Lake Karlview, GU 26672"
53f5641c-069b-4272-8cc2-728aa8163865,da187e9e-dcb8-49ff-b036-d0569f36ce35,2024-07-29 13:45:13,Kimberly Howe,huntrebecca@example.org,72,whose,leader,7,43.27,298.52,298.52,West,4.37,321,Credit Card,Refunded,Cancelled,7.07,DHL,909962a8-e547-479e-8513-3e95bc4e9e6c,growth,4.37,Gainesville,US,29.65163,-82.32483,"459 Koch Squares Suite 442, Maldonadohaven, CA 71505","9422 Ryan Shore Apt. 740, Bestburgh, KY 38889"
b0694b09-ae21-4cef-b659-c78c6742a357,6017b823-7d83-4c27-9944-47103626e46a,2024-01-23 04:34:45,Timothy Murphy,xjohnson@example.net,46,off,prevent,2,88.96,169.6,169.6,West,8.32,107,Debit Card,Paid,Pending,11.24,UPS,2465b4d3-75b5-4382-ac55-bdb8c2abfb10,become,8.32,Nutley,US,40.82232,-74.15987,"7942 Jonathan Shoals, East Lisafurt, WI 80843","PSC 1464, Box 1624, APO AE 26233"
ed5c23ea-8810-414b-9a01-49da55456741,47c52cc8-ea7f-4af5-8543-08af771f9d37,2024-05-06 11:07:24,Isabel Booker,davidholmes@example.com,82,dog,TV,8,83.36,662.66,662.66,South,4.22,110,PayPal,Paid,Delivered,17.01,USPS,b0900aba-1368-4a31-9245-9ad25c1b495c,stop,4.22,Fairview Heights,US,38.58894,-89.99038,"73754 Jeremy Dam, Perryland, IN 24696","2592 Robertson Squares, Stevenview, NY 85916"
e32cab8a-a895-4aeb-96d7-40a08a96795d,8175a38b-dab0-4023-a485-74406f87934b,2024-06-13 11:36:10,Christopher Simpson,bergerrebecca@example.net,2,international,across,8,69.87,555.91,555.91,North,3.05,358,Debit Card,Refunded,Pending,18.3,DHL,73308ce0-8b05-44e4-be95-f78d6f37fd70,skin,3.05,Pleasant Prairie,US,42.55308,-87.93341,"86073 Bobby Flat, Trevorville, AS 61905","PSC 9015, Box 8399, APO AE 28722"
473987bf-8f33-4f27-98ca-964e512e7264,118b59d9-bd6d-4400-a8f6-51f6604e5f76,2024-04-11 08:59:46,Sarah Pineda,sjohnson@example.net,55,although,often,3,38.17,112.86,112.86,South,1.65,137,Credit Card,Unpaid,Cancelled,17.7,DHL,3aaa955e-c215-4efb-a97e-e21c5c07c6ca,man,1.65,Palestine,US,31.76212,-95.63079,"049 Taylor Springs, Jeffreyville, NV 45582","69170 Wallace Estate, Daniellechester, HI 40302"
0217448a-8a75-436d-a7cb-b2c8af7291bc,6f87ca31-b12c-41e1-85fc-4f3c4d0f5146,2024-03-29 10:16:55,Michael Welch,qthomas@example.org,53,see,behind,9,82.63,743.34,743.34,North,0.33,277,PayPal,Unpaid,Delivered,10.75,DHL,4022d3cc-1d7e-42ac-9168-8199724d8ca6,different,0.33,Westchester,US,41.85059,-87.882,"35137 Burns Island Apt. 915, West Robert, MI 22153","USNV Dunn, FPO AA 79222"
c5ca20f6-9b4c-46ab-8f72-7223274883ee,3e52f381-b2ea-4e26-846a-47fcbc0bd3c5,2024-06-09 22:13:55,Cindy Gomez,stephaniesantiago@example.com,76,painting,position,4,41.38,164.05,164.05,West,1.47,297,Credit Card,Unpaid,Cancelled,14.5,UPS,3f8b4477-d7a9-4544-acd9-6e3bf3e8e682,time,1.47,Clermont,US,28.54944,-81.77285,"83177 Warner Valleys, Lake Kiarachester, WI 60081","35005 Jonathan Unions Apt. 345, Blairtown, FM 04202"
ef43c892-0e74-4dff-8651-f37a89b9710e,a87e52d0-dd2d-4c76-afcc-41d0e340e31f,2024-07-11 17:51:23,Deborah Fitzpatrick DDS,mckenziealexis@example.com,55,research,already,3,31.49,85.31,85.31,West,9.16,292,Credit Card,Unpaid,Delivered,8.32,DHL,c625d857-d47e-47e4-8d5b-b4d71e7840e1,language,9.16,Morningside Heights,US,40.81,-73.9625,"972 Murphy Islands, Janicestad, NH 69688","Unit 4127 Box 9020, DPO AE 04578"
