SaleID,OrderID,OrderDate,CustomerName,CustomerEmail,ProductID,ProductName,ProductCategory,UnitsSold,UnitPrice,TotalPrice,Revenue,Region,Discount,CustomerID,PaymentMethod,PaymentStatus,OrderStatus,ShippingCost,Carrier,TrackingNumber,CouponCode,CouponDiscount,City,Country,Latitude,Longitude,ShippingAddress,BillingAddress
efd4aefa-2ecb-4de5-9b62-107879bc1798,3a585984-8437-4cd0-9b88-bba8a1a3a530,2024-03-21 04:14:31,Kimberly Nelson,huangdana@example.net,88,fire,control,1,11.74,10.69,10.69,East,1.05,153,PayPal,Refunded,Cancelled,9.63,UPS,c378e52f-7032-4bf5-8135-e179caddcdbc,sea,1.05,Vestavia Hills,US,33.44872,-86.78777,"24936 Ibarra Villages, West James, KY 66612","7376 Owens Brook Suite 492, Dunnfort, ID 58739"
72e0238b-acb1-42c3-8bc9-e772fb51c9ca,7038de56-aca9-4f17-96d6-8a7e66cbfc08,2024-03-15 11:06:00,James Johnson,scottanderson@example.net,54,value,he,5,18.2,90.51,90.51,East,0.49,336,Cash,Unpaid,Pending,6.5,UPS,84f44332-dcfa-4b86-8381-0cd9779483b5,wall,0.49,Belle Glade,US,26.68451,-80.66756,"69767 Warner Island, Nicholasberg, AZ 28148","83622 Fitzpatrick Mill Suite 821, North Robertberg, TX 40658"
80a4720b-b31e-4eb8-a253-5e0ee7a80de4,fed21478-3112-4a12-9bef-a009bc1f2963,2024-03-02 20:12:16,Robert Brewer,williambowman@example.net,21,movement,movie,6,74.98,449.31,449.31,East,0.57,335,PayPal,Paid,Pending,9.83,FedEx,0d9c9b5c-0302-4a78-955e-0ff3b39c1de2,himself,0.57,Watsonville,US,36.91023,-121.75689,"30183 Lopez Curve Suite 725, New Kellyside, VI 30837","7193 Mitchell Causeway Suite 397, Matthewview, PW 49343"
931db272-4530-43a6-81d1-d1eb70c1c303,36f66e90-d0a1-4634-91f4-5da7cfea7d1b,2024-05-11 12:12:10,Elizabeth Montgomery,reiddonna@example.org,35,hard,will,6,20.07,115.45,115.45,South,4.97,353,Debit Card,Refunded,Cancelled,17.8,DHL,92654747-7c6f-4e80-ba23-ecf4ac3c6266,foot,4.97,Tupelo,US,34.25807,-88.70464,"878 Dominguez Vista, Nelsonview, NY 17657","28257 Brown Forks Apt. 778, West Joshua, SC 15825"
da356f2d-cf4a-494e-86b7-85051fc7f7a9,0732bf8b-1d22-41ba-a609-629ae17c8463,2024-01-26 10:25:30,Jasmine Morgan,tward@example.org,61,need,analysis,7,47.29,323.98,323.98,North,7.05,270,Credit Card,Paid,Cancelled,9.33,UPS,bf1d3363-c0e4-42b6-8b97-9cbac39abd23,spend,7.05,Camarillo,US,34.21639,-119.0376,"32602 Davis Plains, Caseychester, MO 48849","365 Salinas Gardens Apt. 384, Blakeborough, GA 33820"
